[
  {
    "name": "Goroka Airport",
    "code": "GKA",
    "latitude": -6.081689834590001,
    "longitude": 145.391998291,
    "type": "domestic",
    "location": {
      "country": "Papua New Guinea",
      "city": "Goroka"
    }
  },
  {
    "name": "Madang Airport",
    "code": "MAG",
    "latitude": -5.20707988739,
    "longitude": 145.789001465,
    "type": "domestic",
    "location": {
      "country": "Papua New Guinea",
      "city": "Madang"
    }
  },
  {
    "name": "Mount Hagen Kagamuga Airport",
    "code": "HGU",
    "latitude": -5.826789855957031,
    "longitude": 144.29600524902344,
    "type": "domestic",
    "location": {
      "country": "Papua New Guinea",
      "city": "Mount Hagen"
    }
  },
  {
    "name": "Nadzab Airport",
    "code": "LAE",
    "latitude": -6.569803,
    "longitude": 146.725977,
    "type": "domestic",
    "location": {
      "country": "Papua New Guinea",
      "city": "Nadzab"
    }
  },
  {
    "name": "Port Moresby Jacksons International Airport",
    "code": "POM",
    "latitude": -9.443380355834961,
    "longitude": 147.22000122070312,
    "type": "international",
    "location": {
      "country": "Papua New Guinea",
      "city": "Port Moresby"
    }
  },
  {
    "name": "Wewak International Airport",
    "code": "WWK",
    "latitude": -3.58383011818,
    "longitude": 143.669006348,
    "type": "international",
    "location": {
      "country": "Papua New Guinea",
      "city": "Wewak"
    }
  },
  {
    "name": "Narsarsuaq Airport",
    "code": "UAK",
    "latitude": 61.1604995728,
    "longitude": -45.4259986877,
    "type": "domestic",
    "location": {
      "country": "Greenland",
      "city": "Narssarssuaq"
    }
  },
  {
    "name": "Godthaab / Nuuk Airport",
    "code": "GOH",
    "latitude": 64.19090271,
    "longitude": -51.6781005859,
    "type": "domestic",
    "location": {
      "country": "Greenland",
      "city": "Godthaab"
    }
  },
  {
    "name": "Kangerlussuaq Airport",
    "code": "SFJ",
    "latitude": 67.0122218992,
    "longitude": -50.7116031647,
    "type": "domestic",
    "location": {
      "country": "Greenland",
      "city": "Sondrestrom"
    }
  },
  {
    "name": "Thule Air Base",
    "code": "THU",
    "latitude": 76.5311965942,
    "longitude": -68.7032012939,
    "type": "domestic",
    "location": {
      "country": "Greenland",
      "city": "Thule"
    }
  },
  {
    "name": "Akureyri Airport",
    "code": "AEY",
    "latitude": 65.66000366210938,
    "longitude": -18.07270050048828,
    "type": "domestic",
    "location": {
      "country": "Iceland",
      "city": "Akureyri"
    }
  },
  {
    "name": "Egilssta\u00f0ir Airport",
    "code": "EGS",
    "latitude": 65.2833023071289,
    "longitude": -14.401399612426758,
    "type": "domestic",
    "location": {
      "country": "Iceland",
      "city": "Egilsstadir"
    }
  },
  {
    "name": "Hornafj\u00f6r\u00f0ur Airport",
    "code": "HFN",
    "latitude": 64.295601,
    "longitude": -15.2272,
    "type": "domestic",
    "location": {
      "country": "Iceland",
      "city": "Hofn"
    }
  },
  {
    "name": "H\u00fasav\u00edk Airport",
    "code": "HZK",
    "latitude": 65.952301,
    "longitude": -17.426001,
    "type": "domestic",
    "location": {
      "country": "Iceland",
      "city": "Husavik"
    }
  },
  {
    "name": "\u00cdsafj\u00f6r\u00f0ur Airport",
    "code": "IFJ",
    "latitude": 66.05809783935547,
    "longitude": -23.135299682617188,
    "type": "domestic",
    "location": {
      "country": "Iceland",
      "city": "Isafjordur"
    }
  },
  {
    "name": "Keflavik International Airport",
    "code": "KEF",
    "latitude": 63.985000610352,
    "longitude": -22.605600357056,
    "type": "international",
    "location": {
      "country": "Iceland",
      "city": "Keflavik"
    }
  },
  {
    "name": "Patreksfj\u00f6r\u00f0ur Airport",
    "code": "PFJ",
    "latitude": 65.555801,
    "longitude": -23.965,
    "type": "domestic",
    "location": {
      "country": "Iceland",
      "city": "Patreksfjordur"
    }
  },
  {
    "name": "Reykjavik Airport",
    "code": "RKV",
    "latitude": 64.1299972534,
    "longitude": -21.9405994415,
    "type": "domestic",
    "location": {
      "country": "Iceland",
      "city": "Reykjavik"
    }
  },
  {
    "name": "Siglufj\u00f6r\u00f0ur Airport",
    "code": "SIJ",
    "latitude": 66.133301,
    "longitude": -18.9167,
    "type": "domestic",
    "location": {
      "country": "Iceland",
      "city": "Siglufjordur"
    }
  },
  {
    "name": "Vestmannaeyjar Airport",
    "code": "VEY",
    "latitude": 63.42430114746094,
    "longitude": -20.278900146484375,
    "type": "domestic",
    "location": {
      "country": "Iceland",
      "city": "Vestmannaeyjar"
    }
  },
  {
    "name": "Sault Ste Marie Airport",
    "code": "YAM",
    "latitude": 46.48500061035156,
    "longitude": -84.5093994140625,
    "type": "domestic",
    "location": {
      "country": "Canada",
      "city": "Sault Sainte Marie"
    }
  },
  {
    "name": "Winnipeg / St. Andrews Airport",
    "code": "YAV",
    "latitude": 50.0564002991,
    "longitude": -97.03250122070001,
    "type": "domestic",
    "location": {
      "country": "Canada",
      "city": "Winnipeg"
    }
  },
  {
    "name": "Halifax / CFB Shearwater Heliport",
    "code": "YAW",
    "latitude": 44.6397018433,
    "longitude": -63.499401092499994,
    "type": "domestic",
    "location": {
      "country": "Canada",
      "city": "Halifax"
    }
  },
  {
    "name": "St. Anthony Airport",
    "code": "YAY",
    "latitude": 51.3918991089,
    "longitude": -56.083099365200006,
    "type": "domestic",
    "location": {
      "country": "Canada",
      "city": "St. Anthony"
    }
  },
  {
    "name": "Tofino / Long Beach Airport",
    "code": "YAZ",
    "latitude": 49.079833,
    "longitude": -125.775583,
    "type": "domestic",
    "location": {
      "country": "Canada",
      "city": "Tofino"
    }
  },
  {
    "name": "Kugaaruk Airport",
    "code": "YBB",
    "latitude": 68.534401,
    "longitude": -89.808098,
    "type": "domestic",
    "location": {
      "country": "Canada",
      "city": "Pelly Bay"
    }
  },
  {
    "name": "Baie Comeau Airport",
    "code": "YBC",
    "latitude": 49.13249969482422,
    "longitude": -68.20439910888672,
    "type": "domestic",
    "location": {
      "country": "Canada",
      "city": "Baie Comeau"
    }
  },
  {
    "name": "CFB Bagotville",
    "code": "YBG",
    "latitude": 48.33060073852539,
    "longitude": -70.99639892578125,
    "type": "domestic",
    "location": {
      "country": "Canada",
      "city": "Bagotville"
    }
  },
  {
    "name": "Baker Lake Airport",
    "code": "YBK",
    "latitude": 64.29889678960001,
    "longitude": -96.077796936,
    "type": "domestic",
    "location": {
      "country": "Canada",
      "city": "Baker Lake"
    }
  },
  {
    "name": "Campbell River Airport",
    "code": "YBL",
    "latitude": 49.950801849365234,
    "longitude": -125.27100372314453,
    "type": "domestic",
    "location": {
      "country": "Canada",
      "city": "Campbell River"
    }
  },
  {
    "name": "Brandon Municipal Airport",
    "code": "YBR",
    "latitude": 49.91,
    "longitude": -99.951897,
    "type": "domestic",
    "location": {
      "country": "Canada",
      "city": "Brandon"
    }
  },
  {
    "name": "Cambridge Bay Airport",
    "code": "YCB",
    "latitude": 69.1081008911,
    "longitude": -105.138000488,
    "type": "domestic",
    "location": {
      "country": "Canada",
      "city": "Cambridge Bay"
    }
  },
  {
    "name": "Nanaimo Airport",
    "code": "YCD",
    "latitude": 49.054970224899996,
    "longitude": -123.869862556,
    "type": "domestic",
    "location": {
      "country": "Canada",
      "city": "Nanaimo"
    }
  },
  {
    "name": "Castlegar/West Kootenay Regional Airport",
    "code": "YCG",
    "latitude": 49.2963981628,
    "longitude": -117.632003784,
    "type": "domestic",
    "location": {
      "country": "Canada",
      "city": "Castlegar"
    }
  },
  {
    "name": "Miramichi Airport",
    "code": "YCH",
    "latitude": 47.007801,
    "longitude": -65.449203,
    "type": "domestic",
    "location": {
      "country": "Canada",
      "city": "Chatham"
    }
  },
  {
    "name": "Charlo Airport",
    "code": "YCL",
    "latitude": 47.990799,
    "longitude": -66.330299,
    "type": "domestic",
    "location": {
      "country": "Canada",
      "city": "Charlo"
    }
  },
  {
    "name": "Kugluktuk Airport",
    "code": "YCO",
    "latitude": 67.81670379639999,
    "longitude": -115.143997192,
    "type": "domestic",
    "location": {
      "country": "Canada",
      "city": "Coppermine"
    }
  },
  {
    "name": "Coronation Airport",
    "code": "YCT",
    "latitude": 52.0750007629,
    "longitude": -111.444999695,
    "type": "domestic",
    "location": {
      "country": "Canada",
      "city": "Coronation"
    }
  },
  {
    "name": "Chilliwack Airport",
    "code": "YCW",
    "latitude": 49.1528015137,
    "longitude": -121.939002991,
    "type": "domestic",
    "location": {
      "country": "Canada",
      "city": "Chilliwack"
    }
  },
  {
    "name": "Clyde River Airport",
    "code": "YCY",
    "latitude": 70.4860992432,
    "longitude": -68.5167007446,
    "type": "domestic",
    "location": {
      "country": "Canada",
      "city": "Clyde River"
    }
  },
  {
    "name": "Coral Harbour Airport",
    "code": "YZS",
    "latitude": 64.1932983398,
    "longitude": -83.3593978882,
    "type": "domestic",
    "location": {
      "country": "Canada",
      "city": "Coral Harbour"
    }
  },
  {
    "name": "Dawson City Airport",
    "code": "YDA",
    "latitude": 64.04309844970703,
    "longitude": -139.1280059814453,
    "type": "domestic",
    "location": {
      "country": "Canada",
      "city": "Dawson"
    }
  },
  {
    "name": "Burwash Airport",
    "code": "YDB",
    "latitude": 61.37110137939453,
    "longitude": -139.04100036621094,
    "type": "domestic",
    "location": {
      "country": "Canada",
      "city": "Burwash"
    }
  },
  {
    "name": "Princeton Airport",
    "code": "YDC",
    "latitude": 49.4681015015,
    "longitude": -120.511001587,
    "type": "domestic",
    "location": {
      "country": "Canada",
      "city": "Princeton"
    }
  },
  {
    "name": "Deer Lake Airport",
    "code": "YDF",
    "latitude": 49.21080017089844,
    "longitude": -57.39139938354492,
    "type": "domestic",
    "location": {
      "country": "Canada",
      "city": "Deer Lake"
    }
  },
  {
    "name": "Dease Lake Airport",
    "code": "YDL",
    "latitude": 58.4221992493,
    "longitude": -130.031997681,
    "type": "domestic",
    "location": {
      "country": "Canada",
      "city": "Dease Lake"
    }
  },
  {
    "name": "Dauphin Barker Airport",
    "code": "YDN",
    "latitude": 51.100799560546875,
    "longitude": -100.052001953125,
    "type": "domestic",
    "location": {
      "country": "Canada",
      "city": "Dauphin"
    }
  },
  {
    "name": "Dawson Creek Airport",
    "code": "YDQ",
    "latitude": 55.7422981262207,
    "longitude": -120.18299865722656,
    "type": "domestic",
    "location": {
      "country": "Canada",
      "city": "Dawson Creek"
    }
  },
  {
    "name": "Edmonton International Airport",
    "code": "YEG",
    "latitude": 53.309700012200004,
    "longitude": -113.580001831,
    "type": "international",
    "location": {
      "country": "Canada",
      "city": "Edmonton"
    }
  },
  {
    "name": "Arviat Airport",
    "code": "YEK",
    "latitude": 61.0942001343,
    "longitude": -94.07080078119999,
    "type": "domestic",
    "location": {
      "country": "Canada",
      "city": "Eskimo Point"
    }
  },
  {
    "name": "Estevan Airport",
    "code": "YEN",
    "latitude": 49.2103004456,
    "longitude": -102.966003418,
    "type": "domestic",
    "location": {
      "country": "Canada",
      "city": "Estevan"
    }
  },
  {
    "name": "Edson Airport",
    "code": "YET",
    "latitude": 53.578899383499994,
    "longitude": -116.464996338,
    "type": "domestic",
    "location": {
      "country": "Canada",
      "city": "Edson"
    }
  },
  {
    "name": "Eureka Airport",
    "code": "YEU",
    "latitude": 79.9946975708,
    "longitude": -85.814201355,
    "type": "domestic",
    "location": {
      "country": "Canada",
      "city": "Eureka"
    }
  },
  {
    "name": "Inuvik Mike Zubko Airport",
    "code": "YEV",
    "latitude": 68.30419921880001,
    "longitude": -133.483001709,
    "type": "domestic",
    "location": {
      "country": "Canada",
      "city": "Inuvik"
    }
  },
  {
    "name": "Iqaluit Airport",
    "code": "YFB",
    "latitude": 63.756401062,
    "longitude": -68.5558013916,
    "type": "domestic",
    "location": {
      "country": "Canada",
      "city": "Iqaluit"
    }
  },
  {
    "name": "Fredericton Airport",
    "code": "YFC",
    "latitude": 45.868900299072266,
    "longitude": -66.53720092773438,
    "type": "domestic",
    "location": {
      "country": "Canada",
      "city": "Fredericton"
    }
  },
  {
    "name": "Flin Flon Airport",
    "code": "YFO",
    "latitude": 54.6781005859375,
    "longitude": -101.68199920654297,
    "type": "domestic",
    "location": {
      "country": "Canada",
      "city": "Flin Flon"
    }
  },
  {
    "name": "Fort Resolution Airport",
    "code": "YFR",
    "latitude": 61.1808013916,
    "longitude": -113.690002441,
    "type": "domestic",
    "location": {
      "country": "Canada",
      "city": "Fort Resolution"
    }
  },
  {
    "name": "Fort Simpson Airport",
    "code": "YFS",
    "latitude": 61.76020050048828,
    "longitude": -121.23699951171875,
    "type": "domestic",
    "location": {
      "country": "Canada",
      "city": "Fort Simpson"
    }
  },
  {
    "name": "Kingston Norman Rogers Airport",
    "code": "YGK",
    "latitude": 44.22529983520508,
    "longitude": -76.5969009399414,
    "type": "domestic",
    "location": {
      "country": "Canada",
      "city": "Kingston"
    }
  },
  {
    "name": "La Grande Rivi\u00e8re Airport",
    "code": "YGL",
    "latitude": 53.625301361083984,
    "longitude": -77.7042007446289,
    "type": "domestic",
    "location": {
      "country": "Canada",
      "city": "La Grande Riviere"
    }
  },
  {
    "name": "Gasp\u00e9 (Michel-Pouliot) Airport",
    "code": "YGP",
    "latitude": 48.7752990723,
    "longitude": -64.4785995483,
    "type": "domestic",
    "location": {
      "country": "Canada",
      "city": "Gaspe"
    }
  },
  {
    "name": "Geraldton Greenstone Regional Airport",
    "code": "YGQ",
    "latitude": 49.77830123901367,
    "longitude": -86.93939971923828,
    "type": "domestic",
    "location": {
      "country": "Canada",
      "city": "Geraldton"
    }
  },
  {
    "name": "\u00celes-de-la-Madeleine Airport",
    "code": "YGR",
    "latitude": 47.42470169067383,
    "longitude": -61.778099060058594,
    "type": "domestic",
    "location": {
      "country": "Canada",
      "city": "Iles De La Madeleine"
    }
  },
  {
    "name": "Hudson Bay Airport",
    "code": "YHB",
    "latitude": 52.8166999817,
    "longitude": -102.310997009,
    "type": "domestic",
    "location": {
      "country": "Canada",
      "city": "Hudson Bay"
    }
  },
  {
    "name": "Dryden Regional Airport",
    "code": "YHD",
    "latitude": 49.83169937133789,
    "longitude": -92.74420166015625,
    "type": "domestic",
    "location": {
      "country": "Canada",
      "city": "Dryden"
    }
  },
  {
    "name": "Ulukhaktok Holman Airport",
    "code": "YHI",
    "latitude": 70.76280212402344,
    "longitude": -117.80599975585938,
    "type": "domestic",
    "location": {
      "country": "Canada",
      "city": "Holman Island"
    }
  },
  {
    "name": "Gjoa Haven Airport",
    "code": "YHK",
    "latitude": 68.635597229,
    "longitude": -95.84970092770001,
    "type": "domestic",
    "location": {
      "country": "Canada",
      "city": "Gjoa Haven"
    }
  },
  {
    "name": "John C. Munro Hamilton International Airport",
    "code": "YHM",
    "latitude": 43.173599243199995,
    "longitude": -79.93499755859999,
    "type": "international",
    "location": {
      "country": "Canada",
      "city": "Hamilton"
    }
  },
  {
    "name": "Montr\u00e9al / Saint-Hubert Airport",
    "code": "YHU",
    "latitude": 45.5175018311,
    "longitude": -73.4169006348,
    "type": "domestic",
    "location": {
      "country": "Canada",
      "city": "Montreal"
    }
  },
  {
    "name": "Hay River / Merlyn Carter Airport",
    "code": "YHY",
    "latitude": 60.8396987915,
    "longitude": -115.782997131,
    "type": "domestic",
    "location": {
      "country": "Canada",
      "city": "Hay River"
    }
  },
  {
    "name": "Halifax / Stanfield International Airport",
    "code": "YHZ",
    "latitude": 44.8807983398,
    "longitude": -63.5085983276,
    "type": "international",
    "location": {
      "country": "Canada",
      "city": "Halifax"
    }
  },
  {
    "name": "Atikokan Municipal Airport",
    "code": "YIB",
    "latitude": 48.7738990784,
    "longitude": -91.6386032104,
    "type": "domestic",
    "location": {
      "country": "Canada",
      "city": "Atikokan"
    }
  },
  {
    "name": "Pond Inlet Airport",
    "code": "YIO",
    "latitude": 72.6832962036,
    "longitude": -77.9666976929,
    "type": "domestic",
    "location": {
      "country": "Canada",
      "city": "Pond Inlet"
    }
  },
  {
    "name": "St Jean Airport",
    "code": "YJN",
    "latitude": 45.29439926147461,
    "longitude": -73.28109741210938,
    "type": "domestic",
    "location": {
      "country": "Canada",
      "city": "St. Jean"
    }
  },
  {
    "name": "Stephenville Airport",
    "code": "YJT",
    "latitude": 48.5442008972168,
    "longitude": -58.54999923706055,
    "type": "domestic",
    "location": {
      "country": "Canada",
      "city": "Stephenville"
    }
  },
  {
    "name": "Kamloops Airport",
    "code": "YKA",
    "latitude": 50.7022018433,
    "longitude": -120.444000244,
    "type": "domestic",
    "location": {
      "country": "Canada",
      "city": "Kamloops"
    }
  },
  {
    "name": "Waterloo Airport",
    "code": "YKF",
    "latitude": 43.460800170899994,
    "longitude": -80.3786010742,
    "type": "domestic",
    "location": {
      "country": "Canada",
      "city": "Waterloo"
    }
  },
  {
    "name": "Schefferville Airport",
    "code": "YKL",
    "latitude": 54.805301666259766,
    "longitude": -66.8052978515625,
    "type": "domestic",
    "location": {
      "country": "Canada",
      "city": "Schefferville"
    }
  },
  {
    "name": "Kindersley Airport",
    "code": "YKY",
    "latitude": 51.5175018311,
    "longitude": -109.180999756,
    "type": "domestic",
    "location": {
      "country": "Canada",
      "city": "Kindersley"
    }
  },
  {
    "name": "Buttonville Municipal Airport",
    "code": "YKZ",
    "latitude": 43.86220169067383,
    "longitude": -79.37000274658203,
    "type": "domestic",
    "location": {
      "country": "Canada",
      "city": "Toronto"
    }
  },
  {
    "name": "Chapleau Airport",
    "code": "YLD",
    "latitude": 47.81999969482422,
    "longitude": -83.3467025756836,
    "type": "domestic",
    "location": {
      "country": "Canada",
      "city": "Chapleau"
    }
  },
  {
    "name": "Meadow Lake Airport",
    "code": "YLJ",
    "latitude": 54.125301361083984,
    "longitude": -108.52300262451172,
    "type": "domestic",
    "location": {
      "country": "Canada",
      "city": "Meadow Lake"
    }
  },
  {
    "name": "Lloydminster Airport",
    "code": "YLL",
    "latitude": 53.309200286865234,
    "longitude": -110.072998046875,
    "type": "domestic",
    "location": {
      "country": "Canada",
      "city": "Lloydminster"
    }
  },
  {
    "name": "Alert Airport",
    "code": "YLT",
    "latitude": 82.51779937740001,
    "longitude": -62.2806015015,
    "type": "domestic",
    "location": {
      "country": "Canada",
      "city": "Alert"
    }
  },
  {
    "name": "Kelowna International Airport",
    "code": "YLW",
    "latitude": 49.9561004639,
    "longitude": -119.377998352,
    "type": "international",
    "location": {
      "country": "Canada",
      "city": "Kelowna"
    }
  },
  {
    "name": "Mayo Airport",
    "code": "YMA",
    "latitude": 63.61640167236328,
    "longitude": -135.8679962158203,
    "type": "domestic",
    "location": {
      "country": "Canada",
      "city": "Mayo"
    }
  },
  {
    "name": "Moose Jaw Air Vice Marshal C. M. McEwen Airport",
    "code": "YMJ",
    "latitude": 50.330299377441406,
    "longitude": -105.55899810791016,
    "type": "domestic",
    "location": {
      "country": "Canada",
      "city": "Moose Jaw"
    }
  },
  {
    "name": "Fort McMurray Airport",
    "code": "YMM",
    "latitude": 56.653301239,
    "longitude": -111.222000122,
    "type": "domestic",
    "location": {
      "country": "Canada",
      "city": "Fort Mcmurray"
    }
  },
  {
    "name": "Moosonee Airport",
    "code": "YMO",
    "latitude": 51.291099548339844,
    "longitude": -80.60780334472656,
    "type": "domestic",
    "location": {
      "country": "Canada",
      "city": "Moosonee"
    }
  },
  {
    "name": "Maniwaki Airport",
    "code": "YMW",
    "latitude": 46.2728004456,
    "longitude": -75.9906005859,
    "type": "domestic",
    "location": {
      "country": "Canada",
      "city": "Maniwaki"
    }
  },
  {
    "name": "Montreal International (Mirabel) Airport",
    "code": "YMX",
    "latitude": 45.6795005798,
    "longitude": -74.0386962891,
    "type": "international",
    "location": {
      "country": "Canada",
      "city": "Montreal"
    }
  },
  {
    "name": "Natashquan Airport",
    "code": "YNA",
    "latitude": 50.189998626708984,
    "longitude": -61.78919982910156,
    "type": "domestic",
    "location": {
      "country": "Canada",
      "city": "Natashquan"
    }
  },
  {
    "name": "Ottawa / Gatineau Airport",
    "code": "YND",
    "latitude": 45.521701812699995,
    "longitude": -75.5635986328,
    "type": "domestic",
    "location": {
      "country": "Canada",
      "city": "Gatineau"
    }
  },
  {
    "name": "Matagami Airport",
    "code": "YNM",
    "latitude": 49.76169967651367,
    "longitude": -77.80280303955078,
    "type": "domestic",
    "location": {
      "country": "Canada",
      "city": "Matagami"
    }
  },
  {
    "name": "Old Crow Airport",
    "code": "YOC",
    "latitude": 67.57060241699219,
    "longitude": -139.83900451660156,
    "type": "domestic",
    "location": {
      "country": "Canada",
      "city": "Old Crow"
    }
  },
  {
    "name": "CFB Cold Lake",
    "code": "YOD",
    "latitude": 54.404998779296875,
    "longitude": -110.27899932861328,
    "type": "domestic",
    "location": {
      "country": "Canada",
      "city": "Cold Lake"
    }
  },
  {
    "name": "High Level Airport",
    "code": "YOJ",
    "latitude": 58.62139892578125,
    "longitude": -117.16500091552734,
    "type": "domestic",
    "location": {
      "country": "Canada",
      "city": "High Level"
    }
  },
  {
    "name": "Ottawa Macdonald-Cartier International Airport",
    "code": "YOW",
    "latitude": 45.3224983215332,
    "longitude": -75.66919708251953,
    "type": "international",
    "location": {
      "country": "Canada",
      "city": "Ottawa"
    }
  },
  {
    "name": "Prince Albert Glass Field",
    "code": "YPA",
    "latitude": 53.214199066199996,
    "longitude": -105.672996521,
    "type": "domestic",
    "location": {
      "country": "Canada",
      "city": "Prince Albert"
    }
  },
  {
    "name": "Peace River Airport",
    "code": "YPE",
    "latitude": 56.226898193359375,
    "longitude": -117.4469985961914,
    "type": "domestic",
    "location": {
      "country": "Canada",
      "city": "Peace River"
    }
  },
  {
    "name": "Southport Airport",
    "code": "YPG",
    "latitude": 49.903099,
    "longitude": -98.273817,
    "type": "domestic",
    "location": {
      "country": "Canada",
      "city": "Portage-la-prairie"
    }
  },
  {
    "name": "Pickle Lake Airport",
    "code": "YPL",
    "latitude": 51.4463996887207,
    "longitude": -90.21420288085938,
    "type": "domestic",
    "location": {
      "country": "Canada",
      "city": "Pickle Lake"
    }
  },
  {
    "name": "Port Menier Airport",
    "code": "YPN",
    "latitude": 49.83639907836914,
    "longitude": -64.2885971069336,
    "type": "domestic",
    "location": {
      "country": "Canada",
      "city": "Port Menier"
    }
  },
  {
    "name": "Peterborough Airport",
    "code": "YPQ",
    "latitude": 44.22999954223633,
    "longitude": -78.36329650878906,
    "type": "domestic",
    "location": {
      "country": "Canada",
      "city": "Peterborough"
    }
  },
  {
    "name": "Prince Rupert Airport",
    "code": "YPR",
    "latitude": 54.286098480199996,
    "longitude": -130.445007324,
    "type": "domestic",
    "location": {
      "country": "Canada",
      "city": "Prince Pupert"
    }
  },
  {
    "name": "Fort Chipewyan Airport",
    "code": "YPY",
    "latitude": 58.7672004699707,
    "longitude": -111.11699676513672,
    "type": "domestic",
    "location": {
      "country": "Canada",
      "city": "Fort Chipewyan"
    }
  },
  {
    "name": "Muskoka Airport",
    "code": "YQA",
    "latitude": 44.974700927734375,
    "longitude": -79.30329895019531,
    "type": "domestic",
    "location": {
      "country": "Canada",
      "city": "Muskoka"
    }
  },
  {
    "name": "Quebec Jean Lesage International Airport",
    "code": "YQB",
    "latitude": 46.7911,
    "longitude": -71.393303,
    "type": "international",
    "location": {
      "country": "Canada",
      "city": "Quebec"
    }
  },
  {
    "name": "Red Deer Regional Airport",
    "code": "YQF",
    "latitude": 52.18220138549805,
    "longitude": -113.89399719238281,
    "type": "domestic",
    "location": {
      "country": "Canada",
      "city": "Red Deer Industrial"
    }
  },
  {
    "name": "Windsor Airport",
    "code": "YQG",
    "latitude": 42.27560043334961,
    "longitude": -82.95559692382812,
    "type": "domestic",
    "location": {
      "country": "Canada",
      "city": "Windsor"
    }
  },
  {
    "name": "Watson Lake Airport",
    "code": "YQH",
    "latitude": 60.11640167236328,
    "longitude": -128.82200622558594,
    "type": "domestic",
    "location": {
      "country": "Canada",
      "city": "Watson Lake"
    }
  },
  {
    "name": "Kenora Airport",
    "code": "YQK",
    "latitude": 49.788299560546875,
    "longitude": -94.36309814453125,
    "type": "domestic",
    "location": {
      "country": "Canada",
      "city": "Kenora"
    }
  },
  {
    "name": "Lethbridge County Airport",
    "code": "YQL",
    "latitude": 49.6302986145,
    "longitude": -112.800003052,
    "type": "domestic",
    "location": {
      "country": "Canada",
      "city": "Lethbridge"
    }
  },
  {
    "name": "Greater Moncton International Airport",
    "code": "YQM",
    "latitude": 46.11220169067383,
    "longitude": -64.67859649658203,
    "type": "international",
    "location": {
      "country": "Canada",
      "city": "Moncton"
    }
  },
  {
    "name": "Comox Airport",
    "code": "YQQ",
    "latitude": 49.71080017089844,
    "longitude": -124.88700103759766,
    "type": "domestic",
    "location": {
      "country": "Canada",
      "city": "Comox"
    }
  },
  {
    "name": "Regina International Airport",
    "code": "YQR",
    "latitude": 50.43190002441406,
    "longitude": -104.66600036621094,
    "type": "international",
    "location": {
      "country": "Canada",
      "city": "Regina"
    }
  },
  {
    "name": "Thunder Bay Airport",
    "code": "YQT",
    "latitude": 48.37189865112305,
    "longitude": -89.32389831542969,
    "type": "domestic",
    "location": {
      "country": "Canada",
      "city": "Thunder Bay"
    }
  },
  {
    "name": "Grande Prairie Airport",
    "code": "YQU",
    "latitude": 55.1796989441,
    "longitude": -118.885002136,
    "type": "domestic",
    "location": {
      "country": "Canada",
      "city": "Grande Prairie"
    }
  },
  {
    "name": "Yorkton Municipal Airport",
    "code": "YQV",
    "latitude": 51.26470184326172,
    "longitude": -102.46199798583984,
    "type": "domestic",
    "location": {
      "country": "Canada",
      "city": "Yorkton"
    }
  },
  {
    "name": "North Battleford Airport",
    "code": "YQW",
    "latitude": 52.76919937133789,
    "longitude": -108.24400329589844,
    "type": "domestic",
    "location": {
      "country": "Canada",
      "city": "North Battleford"
    }
  },
  {
    "name": "Gander International Airport",
    "code": "YQX",
    "latitude": 48.9369010925293,
    "longitude": -54.56809997558594,
    "type": "international",
    "location": {
      "country": "Canada",
      "city": "Gander"
    }
  },
  {
    "name": "Sydney / J.A. Douglas McCurdy Airport",
    "code": "YQY",
    "latitude": 46.161399841299996,
    "longitude": -60.0477981567,
    "type": "domestic",
    "location": {
      "country": "Canada",
      "city": "Sydney"
    }
  },
  {
    "name": "Quesnel Airport",
    "code": "YQZ",
    "latitude": 53.026100158691406,
    "longitude": -122.51000213623047,
    "type": "domestic",
    "location": {
      "country": "Canada",
      "city": "Quesnel"
    }
  },
  {
    "name": "Resolute Bay Airport",
    "code": "YRB",
    "latitude": 74.7169036865,
    "longitude": -94.9693984985,
    "type": "domestic",
    "location": {
      "country": "Canada",
      "city": "Resolute"
    }
  },
  {
    "name": "Rivi\u00e8re-du-Loup Airport",
    "code": "YRI",
    "latitude": 47.764400482177734,
    "longitude": -69.58470153808594,
    "type": "domestic",
    "location": {
      "country": "Canada",
      "city": "Riviere Du Loup"
    }
  },
  {
    "name": "Roberval Airport",
    "code": "YRJ",
    "latitude": 48.52000045776367,
    "longitude": -72.2656021118164,
    "type": "domestic",
    "location": {
      "country": "Canada",
      "city": "Roberval"
    }
  },
  {
    "name": "Rocky Mountain House Airport",
    "code": "YRM",
    "latitude": 52.4296989441,
    "longitude": -114.903999329,
    "type": "domestic",
    "location": {
      "country": "Canada",
      "city": "Rocky Mountain House"
    }
  },
  {
    "name": "Rankin Inlet Airport",
    "code": "YRT",
    "latitude": 62.8114013672,
    "longitude": -92.1157989502,
    "type": "domestic",
    "location": {
      "country": "Canada",
      "city": "Rankin Inlet"
    }
  },
  {
    "name": "Sudbury Airport",
    "code": "YSB",
    "latitude": 46.625,
    "longitude": -80.79889678955078,
    "type": "domestic",
    "location": {
      "country": "Canada",
      "city": "Sudbury"
    }
  },
  {
    "name": "Sherbrooke Airport",
    "code": "YSC",
    "latitude": 45.4385986328125,
    "longitude": -71.69139862060547,
    "type": "domestic",
    "location": {
      "country": "Canada",
      "city": "Sherbrooke"
    }
  },
  {
    "name": "Saint John Airport",
    "code": "YSJ",
    "latitude": 45.31610107421875,
    "longitude": -65.89029693603516,
    "type": "domestic",
    "location": {
      "country": "Canada",
      "city": "St. John"
    }
  },
  {
    "name": "Fort Smith Airport",
    "code": "YSM",
    "latitude": 60.020301818847656,
    "longitude": -111.96199798583984,
    "type": "domestic",
    "location": {
      "country": "Canada",
      "city": "Fort Smith"
    }
  },
  {
    "name": "Nanisivik Airport",
    "code": "YSR",
    "latitude": 72.982201,
    "longitude": -84.613602,
    "type": "domestic",
    "location": {
      "country": "Canada",
      "city": "Nanisivik"
    }
  },
  {
    "name": "Summerside Airport",
    "code": "YSU",
    "latitude": 46.44060134887695,
    "longitude": -63.83359909057617,
    "type": "domestic",
    "location": {
      "country": "Canada",
      "city": "Summerside"
    }
  },
  {
    "name": "Sachs Harbour (David Nasogaluak Jr. Saaryuaq) Airport",
    "code": "YSY",
    "latitude": 71.9938964844,
    "longitude": -125.242996216,
    "type": "domestic",
    "location": {
      "country": "Canada",
      "city": "Sachs Harbour"
    }
  },
  {
    "name": "Cape Dorset Airport",
    "code": "YTE",
    "latitude": 64.2300033569,
    "longitude": -76.5267028809,
    "type": "domestic",
    "location": {
      "country": "Canada",
      "city": "Cape Dorset"
    }
  },
  {
    "name": "Thompson Airport",
    "code": "YTH",
    "latitude": 55.80110168457031,
    "longitude": -97.86419677734375,
    "type": "domestic",
    "location": {
      "country": "Canada",
      "city": "Thompson"
    }
  },
  {
    "name": "CFB Trenton",
    "code": "YTR",
    "latitude": 44.118900299072266,
    "longitude": -77.5280990600586,
    "type": "domestic",
    "location": {
      "country": "Canada",
      "city": "Trenton"
    }
  },
  {
    "name": "Timmins/Victor M. Power",
    "code": "YTS",
    "latitude": 48.569698333699996,
    "longitude": -81.376701355,
    "type": "domestic",
    "location": {
      "country": "Canada",
      "city": "Timmins"
    }
  },
  {
    "name": "Billy Bishop Toronto City Centre Airport",
    "code": "YTZ",
    "latitude": 43.627499,
    "longitude": -79.396202,
    "type": "domestic",
    "location": {
      "country": "Canada",
      "city": "Toronto"
    }
  },
  {
    "name": "Tuktoyaktuk Airport",
    "code": "YUB",
    "latitude": 69.43329620361328,
    "longitude": -133.0260009765625,
    "type": "domestic",
    "location": {
      "country": "Canada",
      "city": "Tuktoyaktuk"
    }
  },
  {
    "name": "Montreal / Pierre Elliott Trudeau International Airport",
    "code": "YUL",
    "latitude": 45.4706001282,
    "longitude": -73.7407989502,
    "type": "international",
    "location": {
      "country": "Canada",
      "city": "Montreal"
    }
  },
  {
    "name": "Repulse Bay Airport",
    "code": "YUT",
    "latitude": 66.5214004517,
    "longitude": -86.22470092770001,
    "type": "domestic",
    "location": {
      "country": "Canada",
      "city": "Repulse Bay"
    }
  },
  {
    "name": "Hall Beach Airport",
    "code": "YUX",
    "latitude": 68.77610015869999,
    "longitude": -81.2425,
    "type": "domestic",
    "location": {
      "country": "Canada",
      "city": "Hall Beach"
    }
  },
  {
    "name": "Rouyn Noranda Airport",
    "code": "YUY",
    "latitude": 48.20610046386719,
    "longitude": -78.83560180664062,
    "type": "domestic",
    "location": {
      "country": "Canada",
      "city": "Rouyn"
    }
  },
  {
    "name": "La Ronge Airport",
    "code": "YVC",
    "latitude": 55.151401519800004,
    "longitude": -105.262001038,
    "type": "domestic",
    "location": {
      "country": "Canada",
      "city": "La Ronge"
    }
  },
  {
    "name": "Vermilion Airport",
    "code": "YVG",
    "latitude": 53.355800628699996,
    "longitude": -110.823997498,
    "type": "domestic",
    "location": {
      "country": "Canada",
      "city": "Vermillion"
    }
  },
  {
    "name": "Qikiqtarjuaq Airport",
    "code": "YVM",
    "latitude": 67.5457992554,
    "longitude": -64.03140258789999,
    "type": "domestic",
    "location": {
      "country": "Canada",
      "city": "Broughton Island"
    }
  },
  {
    "name": "Val-d'Or Airport",
    "code": "YVO",
    "latitude": 48.0532989502,
    "longitude": -77.7827987671,
    "type": "domestic",
    "location": {
      "country": "Canada",
      "city": "Val D'or"
    }
  },
  {
    "name": "Kuujjuaq Airport",
    "code": "YVP",
    "latitude": 58.096099853515625,
    "longitude": -68.4269027709961,
    "type": "domestic",
    "location": {
      "country": "Canada",
      "city": "Quujjuaq"
    }
  },
  {
    "name": "Norman Wells Airport",
    "code": "YVQ",
    "latitude": 65.28160095214844,
    "longitude": -126.7979965209961,
    "type": "domestic",
    "location": {
      "country": "Canada",
      "city": "Norman Wells"
    }
  },
  {
    "name": "Vancouver International Airport",
    "code": "YVR",
    "latitude": 49.193901062,
    "longitude": -123.183998108,
    "type": "international",
    "location": {
      "country": "Canada",
      "city": "Vancouver"
    }
  },
  {
    "name": "Buffalo Narrows Airport",
    "code": "YVT",
    "latitude": 55.8418998718,
    "longitude": -108.417999268,
    "type": "domestic",
    "location": {
      "country": "Canada",
      "city": "Buffalo Narrows"
    }
  },
  {
    "name": "Wiarton Airport",
    "code": "YVV",
    "latitude": 44.7458,
    "longitude": -81.107201,
    "type": "domestic",
    "location": {
      "country": "Canada",
      "city": "Wiarton"
    }
  },
  {
    "name": "Petawawa Airport",
    "code": "YWA",
    "latitude": 45.95220184326172,
    "longitude": -77.31919860839844,
    "type": "domestic",
    "location": {
      "country": "Canada",
      "city": "Petawawa"
    }
  },
  {
    "name": "Winnipeg / James Armstrong Richardson International Airport",
    "code": "YWG",
    "latitude": 49.909999847399995,
    "longitude": -97.2398986816,
    "type": "international",
    "location": {
      "country": "Canada",
      "city": "Winnipeg"
    }
  },
  {
    "name": "Wabush Airport",
    "code": "YWK",
    "latitude": 52.92190170288086,
    "longitude": -66.8644027709961,
    "type": "domestic",
    "location": {
      "country": "Canada",
      "city": "Wabush"
    }
  },
  {
    "name": "Williams Lake Airport",
    "code": "YWL",
    "latitude": 52.1831016541,
    "longitude": -122.054000854,
    "type": "domestic",
    "location": {
      "country": "Canada",
      "city": "Williams Lake"
    }
  },
  {
    "name": "Wrigley Airport",
    "code": "YWY",
    "latitude": 63.20940017700195,
    "longitude": -123.43699645996094,
    "type": "domestic",
    "location": {
      "country": "Canada",
      "city": "Wrigley"
    }
  },
  {
    "name": "Cranbrook/Canadian Rockies International Airport",
    "code": "YXC",
    "latitude": 49.610801696777,
    "longitude": -115.78199768066,
    "type": "international",
    "location": {
      "country": "Canada",
      "city": "Cranbrook"
    }
  },
  {
    "name": "Edmonton City Centre (Blatchford Field) Airport",
    "code": "YXD",
    "latitude": 53.5724983215,
    "longitude": -113.521003723,
    "type": "domestic",
    "location": {
      "country": "Canada",
      "city": "Edmonton"
    }
  },
  {
    "name": "Saskatoon John G. Diefenbaker International Airport",
    "code": "YXE",
    "latitude": 52.170799255371094,
    "longitude": -106.69999694824219,
    "type": "international",
    "location": {
      "country": "Canada",
      "city": "Saskatoon"
    }
  },
  {
    "name": "Medicine Hat Airport",
    "code": "YXH",
    "latitude": 50.01890182495117,
    "longitude": -110.72100067138672,
    "type": "domestic",
    "location": {
      "country": "Canada",
      "city": "Medicine Hat"
    }
  },
  {
    "name": "Fort St John Airport",
    "code": "YXJ",
    "latitude": 56.23809814453125,
    "longitude": -120.73999786376953,
    "type": "domestic",
    "location": {
      "country": "Canada",
      "city": "Fort Saint John"
    }
  },
  {
    "name": "Sioux Lookout Airport",
    "code": "YXL",
    "latitude": 50.11389923095703,
    "longitude": -91.9052963256836,
    "type": "domestic",
    "location": {
      "country": "Canada",
      "city": "Sioux Lookout"
    }
  },
  {
    "name": "Pangnirtung Airport",
    "code": "YXP",
    "latitude": 66.1449966431,
    "longitude": -65.71360015869999,
    "type": "domestic",
    "location": {
      "country": "Canada",
      "city": "Pangnirtung"
    }
  },
  {
    "name": "Earlton (Timiskaming Regional) Airport",
    "code": "YXR",
    "latitude": 47.697400654599996,
    "longitude": -79.8473453522,
    "type": "domestic",
    "location": {
      "country": "Canada",
      "city": "Earlton"
    }
  },
  {
    "name": "Prince George Airport",
    "code": "YXS",
    "latitude": 53.8894004822,
    "longitude": -122.679000854,
    "type": "domestic",
    "location": {
      "country": "Canada",
      "city": "Prince George"
    }
  },
  {
    "name": "Northwest Regional Airport Terrace-Kitimat",
    "code": "YXT",
    "latitude": 54.468498,
    "longitude": -128.576009,
    "type": "domestic",
    "location": {
      "country": "Canada",
      "city": "Terrace"
    }
  },
  {
    "name": "London Airport",
    "code": "YXU",
    "latitude": 43.035599,
    "longitude": -81.1539,
    "type": "domestic",
    "location": {
      "country": "Canada",
      "city": "London"
    }
  },
  {
    "name": "Abbotsford Airport",
    "code": "YXX",
    "latitude": 49.025299072265625,
    "longitude": -122.36100006103516,
    "type": "domestic",
    "location": {
      "country": "Canada",
      "city": "Abbotsford"
    }
  },
  {
    "name": "Whitehorse / Erik Nielsen International Airport",
    "code": "YXY",
    "latitude": 60.7095985413,
    "longitude": -135.067001343,
    "type": "international",
    "location": {
      "country": "Canada",
      "city": "Whitehorse"
    }
  },
  {
    "name": "North Bay Airport",
    "code": "YYB",
    "latitude": 46.36360168457031,
    "longitude": -79.42279815673828,
    "type": "domestic",
    "location": {
      "country": "Canada",
      "city": "North Bay"
    }
  },
  {
    "name": "Calgary International Airport",
    "code": "YYC",
    "latitude": 51.113899231,
    "longitude": -114.019996643,
    "type": "international",
    "location": {
      "country": "Canada",
      "city": "Calgary"
    }
  },
  {
    "name": "Smithers Airport",
    "code": "YYD",
    "latitude": 54.82469940185547,
    "longitude": -127.18299865722656,
    "type": "domestic",
    "location": {
      "country": "Canada",
      "city": "Smithers"
    }
  },
  {
    "name": "Fort Nelson Airport",
    "code": "YYE",
    "latitude": 58.8363990784,
    "longitude": -122.597000122,
    "type": "domestic",
    "location": {
      "country": "Canada",
      "city": "Fort Nelson"
    }
  },
  {
    "name": "Penticton Airport",
    "code": "YYF",
    "latitude": 49.46310043334961,
    "longitude": -119.60199737548828,
    "type": "domestic",
    "location": {
      "country": "Canada",
      "city": "Penticton"
    }
  },
  {
    "name": "Charlottetown Airport",
    "code": "YYG",
    "latitude": 46.290000915527344,
    "longitude": -63.12110137939453,
    "type": "domestic",
    "location": {
      "country": "Canada",
      "city": "Charlottetown"
    }
  },
  {
    "name": "Taloyoak Airport",
    "code": "YYH",
    "latitude": 69.5466995239,
    "longitude": -93.5766983032,
    "type": "domestic",
    "location": {
      "country": "Canada",
      "city": "Spence Bay"
    }
  },
  {
    "name": "Victoria International Airport",
    "code": "YYJ",
    "latitude": 48.646900177,
    "longitude": -123.426002502,
    "type": "international",
    "location": {
      "country": "Canada",
      "city": "Victoria"
    }
  },
  {
    "name": "Lynn Lake Airport",
    "code": "YYL",
    "latitude": 56.86389923095703,
    "longitude": -101.07599639892578,
    "type": "domestic",
    "location": {
      "country": "Canada",
      "city": "Lynn Lake"
    }
  },
  {
    "name": "Swift Current Airport",
    "code": "YYN",
    "latitude": 50.291900634799994,
    "longitude": -107.691001892,
    "type": "domestic",
    "location": {
      "country": "Canada",
      "city": "Swift Current"
    }
  },
  {
    "name": "Churchill Airport",
    "code": "YYQ",
    "latitude": 58.739200592041016,
    "longitude": -94.06500244140625,
    "type": "domestic",
    "location": {
      "country": "Canada",
      "city": "Churchill"
    }
  },
  {
    "name": "Goose Bay Airport",
    "code": "YYR",
    "latitude": 53.3191986084,
    "longitude": -60.4258003235,
    "type": "domestic",
    "location": {
      "country": "Canada",
      "city": "Goose Bay"
    }
  },
  {
    "name": "St. John's International Airport",
    "code": "YYT",
    "latitude": 47.618598938,
    "longitude": -52.7518997192,
    "type": "international",
    "location": {
      "country": "Canada",
      "city": "St. John's"
    }
  },
  {
    "name": "Kapuskasing Airport",
    "code": "YYU",
    "latitude": 49.41389846801758,
    "longitude": -82.46749877929688,
    "type": "domestic",
    "location": {
      "country": "Canada",
      "city": "Kapuskasing"
    }
  },
  {
    "name": "Armstrong Airport",
    "code": "YYW",
    "latitude": 50.29029846191406,
    "longitude": -88.90969848632812,
    "type": "domestic",
    "location": {
      "country": "Canada",
      "city": "Armstrong"
    }
  },
  {
    "name": "Mont Joli Airport",
    "code": "YYY",
    "latitude": 48.60860061645508,
    "longitude": -68.20809936523438,
    "type": "domestic",
    "location": {
      "country": "Canada",
      "city": "Mont Joli"
    }
  },
  {
    "name": "Lester B. Pearson International Airport",
    "code": "YYZ",
    "latitude": 43.6772003174,
    "longitude": -79.63059997559999,
    "type": "international",
    "location": {
      "country": "Canada",
      "city": "Toronto"
    }
  },
  {
    "name": "Downsview Airport",
    "code": "YZD",
    "latitude": 43.74250030517578,
    "longitude": -79.4655990600586,
    "type": "domestic",
    "location": {
      "country": "Canada",
      "city": "Toronto"
    }
  },
  {
    "name": "Gore Bay Manitoulin Airport",
    "code": "YZE",
    "latitude": 45.88529968261719,
    "longitude": -82.56780242919922,
    "type": "domestic",
    "location": {
      "country": "Canada",
      "city": "Gore Bay"
    }
  },
  {
    "name": "Yellowknife Airport",
    "code": "YZF",
    "latitude": 62.462799072265625,
    "longitude": -114.44000244140625,
    "type": "domestic",
    "location": {
      "country": "Canada",
      "city": "Yellowknife"
    }
  },
  {
    "name": "Slave Lake Airport",
    "code": "YZH",
    "latitude": 55.2930984497,
    "longitude": -114.777000427,
    "type": "domestic",
    "location": {
      "country": "Canada",
      "city": "Slave Lake"
    }
  },
  {
    "name": "Sandspit Airport",
    "code": "YZP",
    "latitude": 53.25429916379999,
    "longitude": -131.813995361,
    "type": "domestic",
    "location": {
      "country": "Canada",
      "city": "Sandspit"
    }
  },
  {
    "name": "Chris Hadfield Airport",
    "code": "YZR",
    "latitude": 42.9994010925293,
    "longitude": -82.30889892578125,
    "type": "domestic",
    "location": {
      "country": "Canada",
      "city": "Sarnia"
    }
  },
  {
    "name": "Port Hardy Airport",
    "code": "YZT",
    "latitude": 50.680599212646484,
    "longitude": -127.36699676513672,
    "type": "domestic",
    "location": {
      "country": "Canada",
      "city": "Port Hardy"
    }
  },
  {
    "name": "Whitecourt Airport",
    "code": "YZU",
    "latitude": 54.14390182495117,
    "longitude": -115.78700256347656,
    "type": "domestic",
    "location": {
      "country": "Canada",
      "city": "Whitecourt"
    }
  },
  {
    "name": "Sept-\u00celes Airport",
    "code": "YZV",
    "latitude": 50.22330093383789,
    "longitude": -66.2656021118164,
    "type": "domestic",
    "location": {
      "country": "Canada",
      "city": "Sept-iles"
    }
  },
  {
    "name": "Teslin Airport",
    "code": "YZW",
    "latitude": 60.17279815673828,
    "longitude": -132.7429962158203,
    "type": "domestic",
    "location": {
      "country": "Canada",
      "city": "Teslin"
    }
  },
  {
    "name": "CFB Greenwood",
    "code": "YZX",
    "latitude": 44.98440170288086,
    "longitude": -64.91690063476562,
    "type": "domestic",
    "location": {
      "country": "Canada",
      "city": "Greenwood"
    }
  },
  {
    "name": "Faro Airport",
    "code": "ZFA",
    "latitude": 62.20750045776367,
    "longitude": -133.37600708007812,
    "type": "domestic",
    "location": {
      "country": "Canada",
      "city": "Faro"
    }
  },
  {
    "name": "Fort Mcpherson Airport",
    "code": "ZFM",
    "latitude": 67.40750122070312,
    "longitude": -134.86099243164062,
    "type": "domestic",
    "location": {
      "country": "Canada",
      "city": "Fort Mcpherson"
    }
  },
  {
    "name": "Soummam Airport",
    "code": "BJA",
    "latitude": 36.7120018005,
    "longitude": 5.0699200630200005,
    "type": "domestic",
    "location": {
      "country": "Algeria",
      "city": "Bejaja"
    }
  },
  {
    "name": "Houari Boumediene Airport",
    "code": "ALG",
    "latitude": 36.691001892089844,
    "longitude": 3.215409994125366,
    "type": "domestic",
    "location": {
      "country": "Algeria",
      "city": "Algier"
    }
  },
  {
    "name": "Djanet Inedbirene Airport",
    "code": "DJG",
    "latitude": 24.292800903299998,
    "longitude": 9.45244026184,
    "type": "domestic",
    "location": {
      "country": "Algeria",
      "city": "Djanet"
    }
  },
  {
    "name": "Boufarik Airport",
    "code": "QFD",
    "latitude": 36.545799,
    "longitude": 2.87611,
    "type": "domestic",
    "location": {
      "country": "Algeria",
      "city": "Boufarik"
    }
  },
  {
    "name": "Illizi Takhamalt Airport",
    "code": "VVZ",
    "latitude": 26.7234992981,
    "longitude": 8.62265014648,
    "type": "domestic",
    "location": {
      "country": "Algeria",
      "city": "Illizi"
    }
  },
  {
    "name": "Aguenar \u2013 Hadj Bey Akhamok Airport",
    "code": "TMR",
    "latitude": 22.8115005493,
    "longitude": 5.45107984543,
    "type": "domestic",
    "location": {
      "country": "Algeria",
      "city": "Tamanrasset"
    }
  },
  {
    "name": "Jijel Ferhat Abbas Airport",
    "code": "GJL",
    "latitude": 36.7951011658,
    "longitude": 5.87361001968,
    "type": "domestic",
    "location": {
      "country": "Algeria",
      "city": "Jijel"
    }
  },
  {
    "name": "Annaba Airport",
    "code": "AAE",
    "latitude": 36.822200775146484,
    "longitude": 7.809169769287109,
    "type": "domestic",
    "location": {
      "country": "Algeria",
      "city": "Annaba"
    }
  },
  {
    "name": "Mohamed Boudiaf International Airport",
    "code": "CZL",
    "latitude": 36.2760009765625,
    "longitude": 6.620389938354492,
    "type": "international",
    "location": {
      "country": "Algeria",
      "city": "Constantine"
    }
  },
  {
    "name": "Cheikh Larbi T\u00e9bessi Airport",
    "code": "TEE",
    "latitude": 35.4315986633,
    "longitude": 8.12071990967,
    "type": "domestic",
    "location": {
      "country": "Algeria",
      "city": "Tebessa"
    }
  },
  {
    "name": "Hassi R'Mel Airport",
    "code": "HRM",
    "latitude": 32.93040084838867,
    "longitude": 3.311539888381958,
    "type": "domestic",
    "location": {
      "country": "Algeria",
      "city": "Tilrempt"
    }
  },
  {
    "name": "Bou Chekif Airport",
    "code": "TID",
    "latitude": 35.3410987854,
    "longitude": 1.46315002441,
    "type": "domestic",
    "location": {
      "country": "Algeria",
      "city": "Tiaret"
    }
  },
  {
    "name": "Tindouf Airport",
    "code": "TIN",
    "latitude": 27.7003993988,
    "longitude": -8.167099952700001,
    "type": "domestic",
    "location": {
      "country": "Algeria",
      "city": "Tindouf"
    }
  },
  {
    "name": "Ech Cheliff Airport",
    "code": "QAS",
    "latitude": 36.2126998901,
    "longitude": 1.33176994324,
    "type": "domestic",
    "location": {
      "country": "Algeria",
      "city": "Ech-cheliff"
    }
  },
  {
    "name": "Tafaraoui Airport",
    "code": "TAF",
    "latitude": 35.54240036010742,
    "longitude": -0.5322780013084412,
    "type": "domestic",
    "location": {
      "country": "Algeria",
      "city": "Oran"
    }
  },
  {
    "name": "Zenata \u2013 Messali El Hadj Airport",
    "code": "TLM",
    "latitude": 35.0167007446,
    "longitude": -1.45000004768,
    "type": "domestic",
    "location": {
      "country": "Algeria",
      "city": "Tlemcen"
    }
  },
  {
    "name": "Es Senia Airport",
    "code": "ORN",
    "latitude": 35.6239013672,
    "longitude": -0.6211829781529999,
    "type": "domestic",
    "location": {
      "country": "Algeria",
      "city": "Oran"
    }
  },
  {
    "name": "Ghriss Airport",
    "code": "MUW",
    "latitude": 35.207698822021484,
    "longitude": 0.14714199304580688,
    "type": "domestic",
    "location": {
      "country": "Algeria",
      "city": "Ghriss"
    }
  },
  {
    "name": "Touat Cheikh Sidi Mohamed Belkebir Airport",
    "code": "AZR",
    "latitude": 27.837600708007812,
    "longitude": -0.18641400337219238,
    "type": "domestic",
    "location": {
      "country": "Algeria",
      "city": "Adrar"
    }
  },
  {
    "name": "Biskra Airport",
    "code": "BSK",
    "latitude": 34.793300628699996,
    "longitude": 5.73823022842,
    "type": "domestic",
    "location": {
      "country": "Algeria",
      "city": "Biskra"
    }
  },
  {
    "name": "El Golea Airport",
    "code": "ELG",
    "latitude": 30.571300506591797,
    "longitude": 2.8595900535583496,
    "type": "domestic",
    "location": {
      "country": "Algeria",
      "city": "El Golea"
    }
  },
  {
    "name": "Noum\u00e9rat - Moufdi Zakaria Airport",
    "code": "GHA",
    "latitude": 32.38410186767578,
    "longitude": 3.794110059738159,
    "type": "domestic",
    "location": {
      "country": "Algeria",
      "city": "Ghardaia"
    }
  },
  {
    "name": "Oued Irara Airport",
    "code": "HME",
    "latitude": 31.673000335699996,
    "longitude": 6.140439987180001,
    "type": "domestic",
    "location": {
      "country": "Algeria",
      "city": "Hassi Messaoud"
    }
  },
  {
    "name": "In Salah Airport",
    "code": "INZ",
    "latitude": 27.250999450699997,
    "longitude": 2.51202011108,
    "type": "domestic",
    "location": {
      "country": "Algeria",
      "city": "In Salah"
    }
  },
  {
    "name": "Touggourt Sidi Madhi Airport",
    "code": "TGR",
    "latitude": 33.06779861450195,
    "longitude": 6.088669776916504,
    "type": "domestic",
    "location": {
      "country": "Algeria",
      "city": "Touggourt"
    }
  },
  {
    "name": "Laghouat Airport",
    "code": "LOO",
    "latitude": 33.764400482199996,
    "longitude": 2.92833995819,
    "type": "domestic",
    "location": {
      "country": "Algeria",
      "city": "Laghouat"
    }
  },
  {
    "name": "Timimoun Airport",
    "code": "TMX",
    "latitude": 29.2371006012,
    "longitude": 0.276033014059,
    "type": "domestic",
    "location": {
      "country": "Algeria",
      "city": "Timimoun"
    }
  },
  {
    "name": "Ain el Beida Airport",
    "code": "OGX",
    "latitude": 31.917200088500977,
    "longitude": 5.412779808044434,
    "type": "domestic",
    "location": {
      "country": "Algeria",
      "city": "Ouargla"
    }
  },
  {
    "name": "In Am\u00e9nas Airport",
    "code": "IAM",
    "latitude": 28.0515003204,
    "longitude": 9.64291000366,
    "type": "domestic",
    "location": {
      "country": "Algeria",
      "city": "Zarzaitine"
    }
  },
  {
    "name": "Cadjehoun Airport",
    "code": "COO",
    "latitude": 6.357230186462402,
    "longitude": 2.384350061416626,
    "type": "domestic",
    "location": {
      "country": "Benin",
      "city": "Cotonou"
    }
  },
  {
    "name": "Ouagadougou Airport",
    "code": "OUA",
    "latitude": 12.35319995880127,
    "longitude": -1.5124200582504272,
    "type": "domestic",
    "location": {
      "country": "Burkina Faso",
      "city": "Ouagadougou"
    }
  },
  {
    "name": "Bobo Dioulasso Airport",
    "code": "BOY",
    "latitude": 11.160099983215332,
    "longitude": -4.33096981048584,
    "type": "domestic",
    "location": {
      "country": "Burkina Faso",
      "city": "Bobo-dioulasso"
    }
  },
  {
    "name": "Kotoka International Airport",
    "code": "ACC",
    "latitude": 5.605189800262451,
    "longitude": -0.16678600013256073,
    "type": "international",
    "location": {
      "country": "Ghana",
      "city": "Accra"
    }
  },
  {
    "name": "Tamale Airport",
    "code": "TML",
    "latitude": 9.55718994140625,
    "longitude": -0.8632140159606934,
    "type": "domestic",
    "location": {
      "country": "Ghana",
      "city": "Tamale"
    }
  },
  {
    "name": "Sunyani Airport",
    "code": "NYI",
    "latitude": 7.361830234527588,
    "longitude": -2.3287599086761475,
    "type": "domestic",
    "location": {
      "country": "Ghana",
      "city": "Sunyani"
    }
  },
  {
    "name": "Takoradi Airport",
    "code": "TKD",
    "latitude": 4.896059989929199,
    "longitude": -1.7747600078582764,
    "type": "domestic",
    "location": {
      "country": "Ghana",
      "city": "Takoradi"
    }
  },
  {
    "name": "Port Bouet Airport",
    "code": "ABJ",
    "latitude": 5.261390209197998,
    "longitude": -3.9262900352478027,
    "type": "domestic",
    "location": {
      "country": "Cote d'Ivoire",
      "city": "Abidjan"
    }
  },
  {
    "name": "Bouak\u00e9 Airport",
    "code": "BYK",
    "latitude": 7.738800048828125,
    "longitude": -5.073669910430908,
    "type": "domestic",
    "location": {
      "country": "Cote d'Ivoire",
      "city": "Bouake"
    }
  },
  {
    "name": "Daloa Airport",
    "code": "DJO",
    "latitude": 6.792809963226318,
    "longitude": -6.473189830780029,
    "type": "domestic",
    "location": {
      "country": "Cote d'Ivoire",
      "city": "Daloa"
    }
  },
  {
    "name": "Korhogo Airport",
    "code": "HGO",
    "latitude": 9.38718032837,
    "longitude": -5.55666017532,
    "type": "domestic",
    "location": {
      "country": "Cote d'Ivoire",
      "city": "Korhogo"
    }
  },
  {
    "name": "Man Airport",
    "code": "MJC",
    "latitude": 7.272069931030273,
    "longitude": -7.58735990524292,
    "type": "domestic",
    "location": {
      "country": "Cote d'Ivoire",
      "city": "Man"
    }
  },
  {
    "name": "San Pedro Airport",
    "code": "SPY",
    "latitude": 4.746719837188721,
    "longitude": -6.660820007324219,
    "type": "domestic",
    "location": {
      "country": "Cote d'Ivoire",
      "city": "San Pedro"
    }
  },
  {
    "name": "Yamoussoukro Airport",
    "code": "ASK",
    "latitude": 6.9031701088,
    "longitude": -5.36558008194,
    "type": "domestic",
    "location": {
      "country": "Cote d'Ivoire",
      "city": "Yamoussoukro"
    }
  },
  {
    "name": "Nnamdi Azikiwe International Airport",
    "code": "ABV",
    "latitude": 9.006790161132812,
    "longitude": 7.263169765472412,
    "type": "international",
    "location": {
      "country": "Nigeria",
      "city": "Abuja"
    }
  },
  {
    "name": "Akure Airport",
    "code": "AKR",
    "latitude": 7.246739864349365,
    "longitude": 5.3010101318359375,
    "type": "domestic",
    "location": {
      "country": "Nigeria",
      "city": "Akure"
    }
  },
  {
    "name": "Benin Airport",
    "code": "BNI",
    "latitude": 6.316979885101318,
    "longitude": 5.5995001792907715,
    "type": "domestic",
    "location": {
      "country": "Nigeria",
      "city": "Benin"
    }
  },
  {
    "name": "Margaret Ekpo International Airport",
    "code": "CBQ",
    "latitude": 4.976019859313965,
    "longitude": 8.347200393676758,
    "type": "international",
    "location": {
      "country": "Nigeria",
      "city": "Calabar"
    }
  },
  {
    "name": "Akanu Ibiam International Airport",
    "code": "ENU",
    "latitude": 6.474269866943359,
    "longitude": 7.561960220336914,
    "type": "international",
    "location": {
      "country": "Nigeria",
      "city": "Enugu"
    }
  },
  {
    "name": "Gusau Airport",
    "code": "QUS",
    "latitude": 12.171699523925781,
    "longitude": 6.696109771728516,
    "type": "domestic",
    "location": {
      "country": "Nigeria",
      "city": "Gusau"
    }
  },
  {
    "name": "Ibadan Airport",
    "code": "IBA",
    "latitude": 7.362460136413574,
    "longitude": 3.97832989692688,
    "type": "domestic",
    "location": {
      "country": "Nigeria",
      "city": "Ibadan"
    }
  },
  {
    "name": "Ilorin International Airport",
    "code": "ILR",
    "latitude": 8.440210342407227,
    "longitude": 4.493919849395752,
    "type": "international",
    "location": {
      "country": "Nigeria",
      "city": "Ilorin"
    }
  },
  {
    "name": "Yakubu Gowon Airport",
    "code": "JOS",
    "latitude": 9.639829635620117,
    "longitude": 8.869050025939941,
    "type": "domestic",
    "location": {
      "country": "Nigeria",
      "city": "Jos"
    }
  },
  {
    "name": "Kaduna Airport",
    "code": "KAD",
    "latitude": 10.696000099182129,
    "longitude": 7.320109844207764,
    "type": "domestic",
    "location": {
      "country": "Nigeria",
      "city": "Kaduna"
    }
  },
  {
    "name": "Mallam Aminu International Airport",
    "code": "KAN",
    "latitude": 12.047599792480469,
    "longitude": 8.524620056152344,
    "type": "international",
    "location": {
      "country": "Nigeria",
      "city": "Kano"
    }
  },
  {
    "name": "Maiduguri International Airport",
    "code": "MIU",
    "latitude": 11.855299949645996,
    "longitude": 13.080900192260742,
    "type": "international",
    "location": {
      "country": "Nigeria",
      "city": "Maiduguri"
    }
  },
  {
    "name": "Makurdi Airport",
    "code": "MDI",
    "latitude": 7.7038798332214355,
    "longitude": 8.613940238952637,
    "type": "domestic",
    "location": {
      "country": "Nigeria",
      "city": "Makurdi"
    }
  },
  {
    "name": "Murtala Muhammed International Airport",
    "code": "LOS",
    "latitude": 6.5773701667785645,
    "longitude": 3.321160078048706,
    "type": "international",
    "location": {
      "country": "Nigeria",
      "city": "Lagos"
    }
  },
  {
    "name": "Minna Airport",
    "code": "MXJ",
    "latitude": 9.652170181274414,
    "longitude": 6.462259769439697,
    "type": "domestic",
    "location": {
      "country": "Nigeria",
      "city": "Minna"
    }
  },
  {
    "name": "Port Harcourt International Airport",
    "code": "PHC",
    "latitude": 5.0154900550842285,
    "longitude": 6.94959020614624,
    "type": "international",
    "location": {
      "country": "Nigeria",
      "city": "Port Hartcourt"
    }
  },
  {
    "name": "Sadiq Abubakar III International Airport",
    "code": "SKO",
    "latitude": 12.916299819946289,
    "longitude": 5.207190036773682,
    "type": "international",
    "location": {
      "country": "Nigeria",
      "city": "Sokoto"
    }
  },
  {
    "name": "Yola Airport",
    "code": "YOL",
    "latitude": 9.257550239562988,
    "longitude": 12.430399894714355,
    "type": "domestic",
    "location": {
      "country": "Nigeria",
      "city": "Yola"
    }
  },
  {
    "name": "Zaria Airport",
    "code": "ZAR",
    "latitude": 11.130200386047363,
    "longitude": 7.685810089111328,
    "type": "domestic",
    "location": {
      "country": "Nigeria",
      "city": "Zaria"
    }
  },
  {
    "name": "Maradi Airport",
    "code": "MFQ",
    "latitude": 13.5024995803833,
    "longitude": 7.1267499923706055,
    "type": "domestic",
    "location": {
      "country": "Niger",
      "city": "Maradi"
    }
  },
  {
    "name": "Diori Hamani International Airport",
    "code": "NIM",
    "latitude": 13.481499671936035,
    "longitude": 2.183609962463379,
    "type": "international",
    "location": {
      "country": "Niger",
      "city": "Niamey"
    }
  },
  {
    "name": "Tahoua Airport",
    "code": "THZ",
    "latitude": 14.875699996948242,
    "longitude": 5.265359878540039,
    "type": "domestic",
    "location": {
      "country": "Niger",
      "city": "Tahoua"
    }
  },
  {
    "name": "Mano Dayak International Airport",
    "code": "AJY",
    "latitude": 16.965999603271484,
    "longitude": 8.000109672546387,
    "type": "international",
    "location": {
      "country": "Niger",
      "city": "Agadez"
    }
  },
  {
    "name": "Zinder Airport",
    "code": "ZND",
    "latitude": 13.779000282287598,
    "longitude": 8.983759880065918,
    "type": "domestic",
    "location": {
      "country": "Niger",
      "city": "Zinder"
    }
  },
  {
    "name": "Monastir Habib Bourguiba International Airport",
    "code": "MIR",
    "latitude": 35.75809860229492,
    "longitude": 10.75469970703125,
    "type": "international",
    "location": {
      "country": "Tunisia",
      "city": "Monastir"
    }
  },
  {
    "name": "Tunis Carthage International Airport",
    "code": "TUN",
    "latitude": 36.85100173950195,
    "longitude": 10.22719955444336,
    "type": "international",
    "location": {
      "country": "Tunisia",
      "city": "Tunis"
    }
  },
  {
    "name": "Gafsa Ksar International Airport",
    "code": "GAF",
    "latitude": 34.422000885009766,
    "longitude": 8.822500228881836,
    "type": "international",
    "location": {
      "country": "Tunisia",
      "city": "Gafsa"
    }
  },
  {
    "name": "Gab\u00e8s Matmata International Airport",
    "code": "GAE",
    "latitude": 33.87689971923828,
    "longitude": 10.103300094604492,
    "type": "international",
    "location": {
      "country": "Tunisia",
      "city": "Gabes"
    }
  },
  {
    "name": "Djerba Zarzis International Airport",
    "code": "DJE",
    "latitude": 33.875,
    "longitude": 10.775500297546387,
    "type": "international",
    "location": {
      "country": "Tunisia",
      "city": "Djerba"
    }
  },
  {
    "name": "El Borma Airport",
    "code": "EBM",
    "latitude": 31.704299926757812,
    "longitude": 9.254619598388672,
    "type": "domestic",
    "location": {
      "country": "Tunisia",
      "city": "El Borma"
    }
  },
  {
    "name": "Sfax Thyna International Airport",
    "code": "SFA",
    "latitude": 34.71799850463867,
    "longitude": 10.690999984741211,
    "type": "international",
    "location": {
      "country": "Tunisia",
      "city": "Sfax"
    }
  },
  {
    "name": "Tozeur Nefta International Airport",
    "code": "TOE",
    "latitude": 33.939701080322266,
    "longitude": 8.110560417175293,
    "type": "international",
    "location": {
      "country": "Tunisia",
      "city": "Tozeur"
    }
  },
  {
    "name": "Niamtougou International Airport",
    "code": "LRL",
    "latitude": 9.767330169677734,
    "longitude": 1.091249942779541,
    "type": "international",
    "location": {
      "country": "Togo",
      "city": "Niatougou"
    }
  },
  {
    "name": "Lom\u00e9-Tokoin Airport",
    "code": "LFW",
    "latitude": 6.165609836578369,
    "longitude": 1.2545100450515747,
    "type": "domestic",
    "location": {
      "country": "Togo",
      "city": "Lome"
    }
  },
  {
    "name": "Antwerp International Airport (Deurne)",
    "code": "ANR",
    "latitude": 51.1893997192,
    "longitude": 4.46027994156,
    "type": "international",
    "location": {
      "country": "Belgium",
      "city": "Antwerp"
    }
  },
  {
    "name": "Brussels Airport",
    "code": "BRU",
    "latitude": 50.901401519800004,
    "longitude": 4.48443984985,
    "type": "domestic",
    "location": {
      "country": "Belgium",
      "city": "Brussels"
    }
  },
  {
    "name": "Brussels South Charleroi Airport",
    "code": "CRL",
    "latitude": 50.459201812699995,
    "longitude": 4.45382022858,
    "type": "domestic",
    "location": {
      "country": "Belgium",
      "city": "Charleroi"
    }
  },
  {
    "name": "Wevelgem Airport",
    "code": "QKT",
    "latitude": 50.817199707,
    "longitude": 3.20472002029,
    "type": "domestic",
    "location": {
      "country": "Belgium",
      "city": "Kortrijk-vevelgem"
    }
  },
  {
    "name": "Li\u00e8ge Airport",
    "code": "LGG",
    "latitude": 50.63740158081055,
    "longitude": 5.443220138549805,
    "type": "domestic",
    "location": {
      "country": "Belgium",
      "city": "Liege"
    }
  },
  {
    "name": "Ostend-Bruges International Airport",
    "code": "OST",
    "latitude": 51.198898315399994,
    "longitude": 2.8622200489,
    "type": "international",
    "location": {
      "country": "Belgium",
      "city": "Ostend"
    }
  },
  {
    "name": "Altenburg-Nobitz Airport",
    "code": "AOC",
    "latitude": 50.9819450378418,
    "longitude": 12.506388664245605,
    "type": "domestic",
    "location": {
      "country": "Germany",
      "city": "Altenburg"
    }
  },
  {
    "name": "Barth Airport",
    "code": "BBH",
    "latitude": 54.338253,
    "longitude": 12.710515,
    "type": "domestic",
    "location": {
      "country": "Germany",
      "city": "Barth"
    }
  },
  {
    "name": "Berlin-Sch\u00f6nefeld International Airport",
    "code": "SXF",
    "latitude": 52.380001068115,
    "longitude": 13.522500038147,
    "type": "international",
    "location": {
      "country": "Germany",
      "city": "Berlin"
    }
  },
  {
    "name": "Dresden Airport",
    "code": "DRS",
    "latitude": 51.1328010559082,
    "longitude": 13.767200469970703,
    "type": "domestic",
    "location": {
      "country": "Germany",
      "city": "Dresden"
    }
  },
  {
    "name": "Erfurt Airport",
    "code": "ERF",
    "latitude": 50.979801177978516,
    "longitude": 10.958100318908691,
    "type": "domestic",
    "location": {
      "country": "Germany",
      "city": "Erfurt"
    }
  },
  {
    "name": "Frankfurt am Main International Airport",
    "code": "FRA",
    "latitude": 50.0333333,
    "longitude": 8.5705556,
    "type": "international",
    "location": {
      "country": "Germany",
      "city": "Frankfurt"
    }
  },
  {
    "name": "M\u00fcnster Osnabr\u00fcck Airport",
    "code": "FMO",
    "latitude": 52.134601593,
    "longitude": 7.68483018875,
    "type": "domestic",
    "location": {
      "country": "Germany",
      "city": "Munster"
    }
  },
  {
    "name": "Hamburg Airport",
    "code": "HAM",
    "latitude": 53.630401611328,
    "longitude": 9.9882297515869,
    "type": "domestic",
    "location": {
      "country": "Germany",
      "city": "Hamburg"
    }
  },
  {
    "name": "Berlin-Tempelhof International Airport",
    "code": "THF",
    "latitude": 52.472999572753906,
    "longitude": 13.403900146484375,
    "type": "international",
    "location": {
      "country": "Germany",
      "city": "Berlin"
    }
  },
  {
    "name": "Cologne Bonn Airport",
    "code": "CGN",
    "latitude": 50.8658981323,
    "longitude": 7.1427397728,
    "type": "domestic",
    "location": {
      "country": "Germany",
      "city": "Cologne"
    }
  },
  {
    "name": "D\u00fcsseldorf International Airport",
    "code": "DUS",
    "latitude": 51.28950119018555,
    "longitude": 6.766779899597168,
    "type": "international",
    "location": {
      "country": "Germany",
      "city": "Duesseldorf"
    }
  },
  {
    "name": "Munich International Airport",
    "code": "MUC",
    "latitude": 48.353801727295,
    "longitude": 11.786100387573,
    "type": "international",
    "location": {
      "country": "Germany",
      "city": "Munich"
    }
  },
  {
    "name": "Nuremberg Airport",
    "code": "NUE",
    "latitude": 49.498699,
    "longitude": 11.0780556,
    "type": "domestic",
    "location": {
      "country": "Germany",
      "city": "Nuernberg"
    }
  },
  {
    "name": "Leipzig Halle Airport",
    "code": "LEJ",
    "latitude": 51.4238889,
    "longitude": 12.2363889,
    "type": "domestic",
    "location": {
      "country": "Germany",
      "city": "Leipzig"
    }
  },
  {
    "name": "Saarbr\u00fccken Airport",
    "code": "SCN",
    "latitude": 49.214599609400004,
    "longitude": 7.10950994492,
    "type": "domestic",
    "location": {
      "country": "Germany",
      "city": "Saarbruecken"
    }
  },
  {
    "name": "Stuttgart Airport",
    "code": "STR",
    "latitude": 48.689899444599995,
    "longitude": 9.22196006775,
    "type": "domestic",
    "location": {
      "country": "Germany",
      "city": "Stuttgart"
    }
  },
  {
    "name": "Berlin-Tegel International Airport",
    "code": "TXL",
    "latitude": 52.5597000122,
    "longitude": 13.2876996994,
    "type": "international",
    "location": {
      "country": "Germany",
      "city": "Berlin"
    }
  },
  {
    "name": "Hannover Airport",
    "code": "HAJ",
    "latitude": 52.461101532,
    "longitude": 9.685079574580001,
    "type": "domestic",
    "location": {
      "country": "Germany",
      "city": "Hannover"
    }
  },
  {
    "name": "Bremen Airport",
    "code": "BRE",
    "latitude": 53.0475006104,
    "longitude": 8.78666973114,
    "type": "domestic",
    "location": {
      "country": "Germany",
      "city": "Bremen"
    }
  },
  {
    "name": "Frankfurt-Egelsbach Airport",
    "code": "QEF",
    "latitude": 49.959999084472656,
    "longitude": 8.645833015441895,
    "type": "domestic",
    "location": {
      "country": "Germany",
      "city": "Egelsbach"
    }
  },
  {
    "name": "Frankfurt-Hahn Airport",
    "code": "HHN",
    "latitude": 49.948699951200005,
    "longitude": 7.263889789579999,
    "type": "domestic",
    "location": {
      "country": "Germany",
      "city": "Hahn"
    }
  },
  {
    "name": "Mannheim-City Airport",
    "code": "MHG",
    "latitude": 49.47305679321289,
    "longitude": 8.514166831970215,
    "type": "domestic",
    "location": {
      "country": "Germany",
      "city": "Mannheim"
    }
  },
  {
    "name": "Hamburg-Finkenwerder Airport",
    "code": "XFW",
    "latitude": 53.5352783203125,
    "longitude": 9.835556030273438,
    "type": "domestic",
    "location": {
      "country": "Germany",
      "city": "Hamburg"
    }
  },
  {
    "name": "Kiel-Holtenau Airport",
    "code": "KEL",
    "latitude": 54.37944412231445,
    "longitude": 10.145277976989746,
    "type": "domestic",
    "location": {
      "country": "Germany",
      "city": "Kiel"
    }
  },
  {
    "name": "L\u00fcbeck Blankensee Airport",
    "code": "LBC",
    "latitude": 53.8054008484,
    "longitude": 10.7192001343,
    "type": "domestic",
    "location": {
      "country": "Germany",
      "city": "Luebeck"
    }
  },
  {
    "name": "Arnsberg-Menden Airport",
    "code": "ZCA",
    "latitude": 51.483890533447266,
    "longitude": 7.8983330726623535,
    "type": "domestic",
    "location": {
      "country": "Germany",
      "city": "Arnsberg"
    }
  },
  {
    "name": "Essen Mulheim Airport",
    "code": "ESS",
    "latitude": 51.40230178833008,
    "longitude": 6.9373297691345215,
    "type": "domestic",
    "location": {
      "country": "Germany",
      "city": "Essen"
    }
  },
  {
    "name": "M\u00f6nchengladbach Airport",
    "code": "MGL",
    "latitude": 51.23027801513672,
    "longitude": 6.504444122314453,
    "type": "domestic",
    "location": {
      "country": "Germany",
      "city": "Moenchengladbach"
    }
  },
  {
    "name": "Paderborn Lippstadt Airport",
    "code": "PAD",
    "latitude": 51.614101409899995,
    "longitude": 8.616319656369999,
    "type": "domestic",
    "location": {
      "country": "Germany",
      "city": "Paderborn"
    }
  },
  {
    "name": "Dortmund Airport",
    "code": "DTM",
    "latitude": 51.51829910279999,
    "longitude": 7.61223983765,
    "type": "domestic",
    "location": {
      "country": "Germany",
      "city": "Dortmund"
    }
  },
  {
    "name": "Augsburg Airport",
    "code": "AGB",
    "latitude": 48.425278,
    "longitude": 10.931667,
    "type": "domestic",
    "location": {
      "country": "Germany",
      "city": "Augsburg"
    }
  },
  {
    "name": "Oberpfaffenhofen Airport",
    "code": "OBF",
    "latitude": 48.08140182495117,
    "longitude": 11.283100128173828,
    "type": "domestic",
    "location": {
      "country": "Germany",
      "city": "Oberpfaffenhofen"
    }
  },
  {
    "name": "Straubing Airport",
    "code": "RBM",
    "latitude": 48.90083312988281,
    "longitude": 12.516667366027832,
    "type": "domestic",
    "location": {
      "country": "Germany",
      "city": "Straubing"
    }
  },
  {
    "name": "Friedrichshafen Airport",
    "code": "FDH",
    "latitude": 47.671298980699994,
    "longitude": 9.51148986816,
    "type": "domestic",
    "location": {
      "country": "Germany",
      "city": "Friedrichshafen"
    }
  },
  {
    "name": "Schwerin Parchim Airport",
    "code": "SZW",
    "latitude": 53.426998,
    "longitude": 11.7834,
    "type": "domestic",
    "location": {
      "country": "Germany",
      "city": "Parchim"
    }
  },
  {
    "name": "Stendal-Borstel Airport",
    "code": "ZSN",
    "latitude": 52.62888717651367,
    "longitude": 11.818611145019531,
    "type": "domestic",
    "location": {
      "country": "Germany",
      "city": "Stendal"
    }
  },
  {
    "name": "Bayreuth Airport",
    "code": "BYU",
    "latitude": 49.98500061035156,
    "longitude": 11.640000343322754,
    "type": "domestic",
    "location": {
      "country": "Germany",
      "city": "Bayreuth"
    }
  },
  {
    "name": "Hof-Plauen Airport",
    "code": "HOQ",
    "latitude": 50.288612365722656,
    "longitude": 11.856389045715332,
    "type": "domestic",
    "location": {
      "country": "Germany",
      "city": "Hof"
    }
  },
  {
    "name": "Koblenz-Winningen Airport",
    "code": "ZNV",
    "latitude": 50.325557708740234,
    "longitude": 7.528611183166504,
    "type": "domestic",
    "location": {
      "country": "Germany",
      "city": "Koblenz"
    }
  },
  {
    "name": "Trier-F\u00f6hren Airport",
    "code": "ZQF",
    "latitude": 49.863887786865234,
    "longitude": 6.787499904632568,
    "type": "domestic",
    "location": {
      "country": "Germany",
      "city": "Trier"
    }
  },
  {
    "name": "Speyer Airport",
    "code": "ZQC",
    "latitude": 49.30472183227539,
    "longitude": 8.45138931274414,
    "type": "domestic",
    "location": {
      "country": "Germany",
      "city": "Speyer"
    }
  },
  {
    "name": "Zweibr\u00fccken Airport",
    "code": "ZQW",
    "latitude": 49.20940017700195,
    "longitude": 7.400559902191162,
    "type": "domestic",
    "location": {
      "country": "Germany",
      "city": "Zweibruecken"
    }
  },
  {
    "name": "Donaueschingen-Villingen Airport",
    "code": "ZQL",
    "latitude": 47.97333145139999,
    "longitude": 8.52222156525,
    "type": "domestic",
    "location": {
      "country": "Germany",
      "city": "Donaueschingen"
    }
  },
  {
    "name": "Braunschweig Wolfsburg Airport",
    "code": "BWE",
    "latitude": 52.319199,
    "longitude": 10.5561,
    "type": "domestic",
    "location": {
      "country": "Germany",
      "city": "Braunschweig"
    }
  },
  {
    "name": "Kassel-Calden Airport",
    "code": "KSF",
    "latitude": 51.417273,
    "longitude": 9.384967,
    "type": "domestic",
    "location": {
      "country": "Germany",
      "city": "Kassel"
    }
  },
  {
    "name": "Bremerhaven Airport",
    "code": "BRV",
    "latitude": 53.506943,
    "longitude": 8.572778,
    "type": "domestic",
    "location": {
      "country": "Germany",
      "city": "Bremerhaven"
    }
  },
  {
    "name": "Emden Airport",
    "code": "EME",
    "latitude": 53.391109466552734,
    "longitude": 7.227499961853027,
    "type": "domestic",
    "location": {
      "country": "Germany",
      "city": "Emden"
    }
  },
  {
    "name": "Wilhelmshaven-Mariensiel Airport",
    "code": "WVN",
    "latitude": 53.502220153808594,
    "longitude": 8.05222225189209,
    "type": "domestic",
    "location": {
      "country": "Germany",
      "city": "Wilhelmshaven"
    }
  },
  {
    "name": "Borkum Airport",
    "code": "BMK",
    "latitude": 53.5963897705,
    "longitude": 6.70916700363,
    "type": "domestic",
    "location": {
      "country": "Germany",
      "city": "Borkum"
    }
  },
  {
    "name": "Norderney Airport",
    "code": "NRD",
    "latitude": 53.70694351196289,
    "longitude": 7.230000019073486,
    "type": "domestic",
    "location": {
      "country": "Germany",
      "city": "Norderney"
    }
  },
  {
    "name": "Flensburg-Sch\u00e4ferhaus Airport",
    "code": "FLF",
    "latitude": 54.77333450317383,
    "longitude": 9.378889083862305,
    "type": "domestic",
    "location": {
      "country": "Germany",
      "city": "Flensburg"
    }
  },
  {
    "name": "Westerland Sylt Airport",
    "code": "GWT",
    "latitude": 54.9132003784,
    "longitude": 8.34047031403,
    "type": "domestic",
    "location": {
      "country": "Germany",
      "city": "Westerland"
    }
  },
  {
    "name": "K\u00e4rdla Airport",
    "code": "KDL",
    "latitude": 58.99079895019531,
    "longitude": 22.830699920654297,
    "type": "domestic",
    "location": {
      "country": "Estonia",
      "city": "Kardla"
    }
  },
  {
    "name": "Kuressaare Airport",
    "code": "URE",
    "latitude": 58.22990036010742,
    "longitude": 22.50950050354004,
    "type": "domestic",
    "location": {
      "country": "Estonia",
      "city": "Kuressaare"
    }
  },
  {
    "name": "P\u00e4rnu Airport",
    "code": "EPU",
    "latitude": 58.41899871826172,
    "longitude": 24.47279930114746,
    "type": "domestic",
    "location": {
      "country": "Estonia",
      "city": "Parnu"
    }
  },
  {
    "name": "Lennart Meri Tallinn Airport",
    "code": "TLL",
    "latitude": 59.41329956049999,
    "longitude": 24.832799911499997,
    "type": "domestic",
    "location": {
      "country": "Estonia",
      "city": "Tallinn-ulemiste International"
    }
  },
  {
    "name": "Tartu Airport",
    "code": "TAY",
    "latitude": 58.3074989319,
    "longitude": 26.690399169900004,
    "type": "domestic",
    "location": {
      "country": "Estonia",
      "city": "Tartu"
    }
  },
  {
    "name": "Enontekio Airport",
    "code": "ENF",
    "latitude": 68.362602233887,
    "longitude": 23.424299240112,
    "type": "domestic",
    "location": {
      "country": "Finland",
      "city": "Enontekio"
    }
  },
  {
    "name": "Halli Airport",
    "code": "KEV",
    "latitude": 61.856039,
    "longitude": 24.786686,
    "type": "domestic",
    "location": {
      "country": "Finland",
      "city": "Halli"
    }
  },
  {
    "name": "Helsinki Malmi Airport",
    "code": "HEM",
    "latitude": 60.254600524902344,
    "longitude": 25.042800903320312,
    "type": "domestic",
    "location": {
      "country": "Finland",
      "city": "Helsinki"
    }
  },
  {
    "name": "Helsinki Vantaa Airport",
    "code": "HEL",
    "latitude": 60.317199707031,
    "longitude": 24.963300704956,
    "type": "domestic",
    "location": {
      "country": "Finland",
      "city": "Helsinki"
    }
  },
  {
    "name": "Hyvink\u00e4\u00e4 Airfield",
    "code": "HYV",
    "latitude": 60.6543998718,
    "longitude": 24.8810997009,
    "type": "domestic",
    "location": {
      "country": "Finland",
      "city": "Hyvinkaa"
    }
  },
  {
    "name": "Ivalo Airport",
    "code": "IVL",
    "latitude": 68.607299804688,
    "longitude": 27.405300140381,
    "type": "domestic",
    "location": {
      "country": "Finland",
      "city": "Ivalo"
    }
  },
  {
    "name": "Joensuu Airport",
    "code": "JOE",
    "latitude": 62.662899017334,
    "longitude": 29.607500076294,
    "type": "domestic",
    "location": {
      "country": "Finland",
      "city": "Joensuu"
    }
  },
  {
    "name": "Jyvaskyla Airport",
    "code": "JYV",
    "latitude": 62.399501800537,
    "longitude": 25.678300857544,
    "type": "domestic",
    "location": {
      "country": "Finland",
      "city": "Jyvaskyla"
    }
  },
  {
    "name": "Kauhava Airport",
    "code": "KAU",
    "latitude": 63.127102,
    "longitude": 23.051399,
    "type": "domestic",
    "location": {
      "country": "Finland",
      "city": "Kauhava"
    }
  },
  {
    "name": "Kemi-Tornio Airport",
    "code": "KEM",
    "latitude": 65.778701782227,
    "longitude": 24.582099914551,
    "type": "domestic",
    "location": {
      "country": "Finland",
      "city": "Kemi"
    }
  },
  {
    "name": "Kajaani Airport",
    "code": "KAJ",
    "latitude": 64.285499572754,
    "longitude": 27.692399978638,
    "type": "domestic",
    "location": {
      "country": "Finland",
      "city": "Kajaani"
    }
  },
  {
    "name": "Kokkola-Pietarsaari Airport",
    "code": "KOK",
    "latitude": 63.721199035645,
    "longitude": 23.143100738525,
    "type": "domestic",
    "location": {
      "country": "Finland",
      "city": "Kruunupyy"
    }
  },
  {
    "name": "Kuusamo Airport",
    "code": "KAO",
    "latitude": 65.987602233887,
    "longitude": 29.239400863647,
    "type": "domestic",
    "location": {
      "country": "Finland",
      "city": "Kuusamo"
    }
  },
  {
    "name": "Kittil\u00e4 Airport",
    "code": "KTT",
    "latitude": 67.700996398926,
    "longitude": 24.846799850464,
    "type": "domestic",
    "location": {
      "country": "Finland",
      "city": "Kittila"
    }
  },
  {
    "name": "Kuopio Airport",
    "code": "KUO",
    "latitude": 63.007099151611,
    "longitude": 27.797800064087,
    "type": "domestic",
    "location": {
      "country": "Finland",
      "city": "Kuopio"
    }
  },
  {
    "name": "Lappeenranta Airport",
    "code": "LPP",
    "latitude": 61.044601,
    "longitude": 28.144743,
    "type": "domestic",
    "location": {
      "country": "Finland",
      "city": "Lappeenranta"
    }
  },
  {
    "name": "Mariehamn Airport",
    "code": "MHQ",
    "latitude": 60.122200012207,
    "longitude": 19.898199081421,
    "type": "domestic",
    "location": {
      "country": "Finland",
      "city": "Mariehamn"
    }
  },
  {
    "name": "Mikkeli Airport",
    "code": "MIK",
    "latitude": 61.6866,
    "longitude": 27.201799,
    "type": "domestic",
    "location": {
      "country": "Finland",
      "city": "Mikkeli"
    }
  },
  {
    "name": "Oulu Airport",
    "code": "OUL",
    "latitude": 64.930099487305,
    "longitude": 25.354600906372,
    "type": "domestic",
    "location": {
      "country": "Finland",
      "city": "Oulu"
    }
  },
  {
    "name": "Pori Airport",
    "code": "POR",
    "latitude": 61.461700439453,
    "longitude": 21.799999237061,
    "type": "domestic",
    "location": {
      "country": "Finland",
      "city": "Pori"
    }
  },
  {
    "name": "Rovaniemi Airport",
    "code": "RVN",
    "latitude": 66.564796447754,
    "longitude": 25.830400466919,
    "type": "domestic",
    "location": {
      "country": "Finland",
      "city": "Rovaniemi"
    }
  },
  {
    "name": "Savonlinna Airport",
    "code": "SVL",
    "latitude": 61.943099975586,
    "longitude": 28.945100784302,
    "type": "domestic",
    "location": {
      "country": "Finland",
      "city": "Savonlinna"
    }
  },
  {
    "name": "Sodankyla Airport",
    "code": "SOT",
    "latitude": 67.3949966431,
    "longitude": 26.6191005707,
    "type": "domestic",
    "location": {
      "country": "Finland",
      "city": "Sodankyla"
    }
  },
  {
    "name": "Tampere-Pirkkala Airport",
    "code": "TMP",
    "latitude": 61.414100646973,
    "longitude": 23.604400634766,
    "type": "domestic",
    "location": {
      "country": "Finland",
      "city": "Tampere"
    }
  },
  {
    "name": "Turku Airport",
    "code": "TKU",
    "latitude": 60.514099121094,
    "longitude": 22.262800216675,
    "type": "domestic",
    "location": {
      "country": "Finland",
      "city": "Turku"
    }
  },
  {
    "name": "Utti Air Base",
    "code": "QVY",
    "latitude": 60.89640045166,
    "longitude": 26.938400268555,
    "type": "domestic",
    "location": {
      "country": "Finland",
      "city": "Utti"
    }
  },
  {
    "name": "Vaasa Airport",
    "code": "VAA",
    "latitude": 63.050701141357,
    "longitude": 21.762199401855,
    "type": "domestic",
    "location": {
      "country": "Finland",
      "city": "Vaasa"
    }
  },
  {
    "name": "Varkaus Airport",
    "code": "VRK",
    "latitude": 62.171100616455,
    "longitude": 27.868600845337,
    "type": "domestic",
    "location": {
      "country": "Finland",
      "city": "Varkaus"
    }
  },
  {
    "name": "Belfast International Airport",
    "code": "BFS",
    "latitude": 54.6575012207,
    "longitude": -6.2158298492399995,
    "type": "international",
    "location": {
      "country": "United Kingdom",
      "city": "Belfast"
    }
  },
  {
    "name": "St Angelo Airport",
    "code": "ENK",
    "latitude": 54.39889907836914,
    "longitude": -7.651669979095459,
    "type": "domestic",
    "location": {
      "country": "United Kingdom",
      "city": "Enniskillen"
    }
  },
  {
    "name": "George Best Belfast City Airport",
    "code": "BHD",
    "latitude": 54.618099212646484,
    "longitude": -5.872499942779541,
    "type": "domestic",
    "location": {
      "country": "United Kingdom",
      "city": "Belfast"
    }
  },
  {
    "name": "City of Derry Airport",
    "code": "LDY",
    "latitude": 55.04280090332031,
    "longitude": -7.161109924316406,
    "type": "domestic",
    "location": {
      "country": "United Kingdom",
      "city": "Londonderry"
    }
  },
  {
    "name": "Birmingham International Airport",
    "code": "BHX",
    "latitude": 52.453899383499994,
    "longitude": -1.74802994728,
    "type": "international",
    "location": {
      "country": "United Kingdom",
      "city": "Birmingham"
    }
  },
  {
    "name": "Coventry Airport",
    "code": "CVT",
    "latitude": 52.3697013855,
    "longitude": -1.4797199964499999,
    "type": "domestic",
    "location": {
      "country": "United Kingdom",
      "city": "Coventry"
    }
  },
  {
    "name": "Gloucestershire Airport",
    "code": "GLO",
    "latitude": 51.89419937133789,
    "longitude": -2.167220115661621,
    "type": "domestic",
    "location": {
      "country": "United Kingdom",
      "city": "Golouchestershire"
    }
  },
  {
    "name": "Manchester Airport",
    "code": "MAN",
    "latitude": 53.35369873046875,
    "longitude": -2.2749500274658203,
    "type": "domestic",
    "location": {
      "country": "United Kingdom",
      "city": "Manchester"
    }
  },
  {
    "name": "Newquay Cornwall Airport",
    "code": "NQY",
    "latitude": 50.44060134887695,
    "longitude": -4.995409965515137,
    "type": "domestic",
    "location": {
      "country": "United Kingdom",
      "city": "Newquai"
    }
  },
  {
    "name": "RAF Lyneham",
    "code": "LYE",
    "latitude": 51.5051,
    "longitude": -1.99343,
    "type": "domestic",
    "location": {
      "country": "United Kingdom",
      "city": "Lyneham"
    }
  },
  {
    "name": "RNAS Yeovilton",
    "code": "YEO",
    "latitude": 51.0093994140625,
    "longitude": -2.638819932937622,
    "type": "domestic",
    "location": {
      "country": "United Kingdom",
      "city": "Yeovilton"
    }
  },
  {
    "name": "Cardiff International Airport",
    "code": "CWL",
    "latitude": 51.39670181274414,
    "longitude": -3.343329906463623,
    "type": "international",
    "location": {
      "country": "United Kingdom",
      "city": "Cardiff"
    }
  },
  {
    "name": "Swansea Airport",
    "code": "SWS",
    "latitude": 51.60530090332031,
    "longitude": -4.0678300857543945,
    "type": "domestic",
    "location": {
      "country": "United Kingdom",
      "city": "Swansea"
    }
  },
  {
    "name": "Bristol Airport",
    "code": "BRS",
    "latitude": 51.382702,
    "longitude": -2.71909,
    "type": "domestic",
    "location": {
      "country": "United Kingdom",
      "city": "Bristol"
    }
  },
  {
    "name": "Liverpool John Lennon Airport",
    "code": "LPL",
    "latitude": 53.33359909057617,
    "longitude": -2.849720001220703,
    "type": "domestic",
    "location": {
      "country": "United Kingdom",
      "city": "Liverpool"
    }
  },
  {
    "name": "London Luton Airport",
    "code": "LTN",
    "latitude": 51.874698638916016,
    "longitude": -0.36833301186561584,
    "type": "domestic",
    "location": {
      "country": "United Kingdom",
      "city": "London"
    }
  },
  {
    "name": "Plymouth City Airport",
    "code": "PLH",
    "latitude": 50.422798,
    "longitude": -4.10583,
    "type": "domestic",
    "location": {
      "country": "United Kingdom",
      "city": "Plymouth"
    }
  },
  {
    "name": "Bournemouth Airport",
    "code": "BOH",
    "latitude": 50.779998779296875,
    "longitude": -1.8424999713897705,
    "type": "domestic",
    "location": {
      "country": "United Kingdom",
      "city": "Bournemouth"
    }
  },
  {
    "name": "Southampton Airport",
    "code": "SOU",
    "latitude": 50.95029830932617,
    "longitude": -1.3567999601364136,
    "type": "domestic",
    "location": {
      "country": "United Kingdom",
      "city": "Southampton"
    }
  },
  {
    "name": "Lasham Airport",
    "code": "QLA",
    "latitude": 51.187198638916016,
    "longitude": -1.0334999561309814,
    "type": "domestic",
    "location": {
      "country": "United Kingdom",
      "city": "Lasham"
    }
  },
  {
    "name": "Alderney Airport",
    "code": "ACI",
    "latitude": 49.70610046386719,
    "longitude": -2.2147200107574463,
    "type": "domestic",
    "location": {
      "country": "Guernsey",
      "city": "Alderney"
    }
  },
  {
    "name": "Guernsey Airport",
    "code": "GCI",
    "latitude": 49.435001373291016,
    "longitude": -2.6019699573516846,
    "type": "domestic",
    "location": {
      "country": "Guernsey",
      "city": "Guernsey"
    }
  },
  {
    "name": "Jersey Airport",
    "code": "JER",
    "latitude": 49.20790100097656,
    "longitude": -2.195509910583496,
    "type": "domestic",
    "location": {
      "country": "Jersey",
      "city": "Jersey"
    }
  },
  {
    "name": "Shoreham Airport",
    "code": "ESH",
    "latitude": 50.835601806640625,
    "longitude": -0.29722198843955994,
    "type": "domestic",
    "location": {
      "country": "United Kingdom",
      "city": "Shoreham By Sea"
    }
  },
  {
    "name": "London Biggin Hill Airport",
    "code": "BQH",
    "latitude": 51.33079910279999,
    "longitude": 0.0324999988079,
    "type": "domestic",
    "location": {
      "country": "United Kingdom",
      "city": "Biggin Hill"
    }
  },
  {
    "name": "London Gatwick Airport",
    "code": "LGW",
    "latitude": 51.148101806640625,
    "longitude": -0.19027799367904663,
    "type": "domestic",
    "location": {
      "country": "United Kingdom",
      "city": "London"
    }
  },
  {
    "name": "London City Airport",
    "code": "LCY",
    "latitude": 51.505299,
    "longitude": 0.055278,
    "type": "domestic",
    "location": {
      "country": "United Kingdom",
      "city": "London"
    }
  },
  {
    "name": "Farnborough Airport",
    "code": "FAB",
    "latitude": 51.2757987976,
    "longitude": -0.776332974434,
    "type": "domestic",
    "location": {
      "country": "United Kingdom",
      "city": "Farnborough"
    }
  },
  {
    "name": "Blackbushe Airport",
    "code": "BBS",
    "latitude": 51.32389831542969,
    "longitude": -0.8475000262260437,
    "type": "domestic",
    "location": {
      "country": "United Kingdom",
      "city": "Blackbushe"
    }
  },
  {
    "name": "London Heathrow Airport",
    "code": "LHR",
    "latitude": 51.4706,
    "longitude": -0.461941,
    "type": "domestic",
    "location": {
      "country": "United Kingdom",
      "city": "London"
    }
  },
  {
    "name": "Southend Airport",
    "code": "SEN",
    "latitude": 51.5713996887207,
    "longitude": 0.6955559849739075,
    "type": "domestic",
    "location": {
      "country": "United Kingdom",
      "city": "Southend"
    }
  },
  {
    "name": "Lydd Airport",
    "code": "LYX",
    "latitude": 50.95610046386719,
    "longitude": 0.9391670227050781,
    "type": "domestic",
    "location": {
      "country": "United Kingdom",
      "city": "Lydd"
    }
  },
  {
    "name": "Kent International Airport",
    "code": "MSE",
    "latitude": 51.342201,
    "longitude": 1.34611,
    "type": "international",
    "location": {
      "country": "United Kingdom",
      "city": "Manston"
    }
  },
  {
    "name": "Carlisle Airport",
    "code": "CAX",
    "latitude": 54.9375,
    "longitude": -2.8091700077056885,
    "type": "domestic",
    "location": {
      "country": "United Kingdom",
      "city": "Carlisle"
    }
  },
  {
    "name": "Blackpool International Airport",
    "code": "BLK",
    "latitude": 53.77170181274414,
    "longitude": -3.0286099910736084,
    "type": "international",
    "location": {
      "country": "United Kingdom",
      "city": "Blackpool"
    }
  },
  {
    "name": "Humberside Airport",
    "code": "HUY",
    "latitude": 53.57440185546875,
    "longitude": -0.350832998752594,
    "type": "domestic",
    "location": {
      "country": "United Kingdom",
      "city": "Humberside"
    }
  },
  {
    "name": "Barrow Walney Island Airport",
    "code": "BWF",
    "latitude": 54.1286111,
    "longitude": -3.2675,
    "type": "domestic",
    "location": {
      "country": "United Kingdom",
      "city": "Barrow Island"
    }
  },
  {
    "name": "Leeds Bradford Airport",
    "code": "LBA",
    "latitude": 53.86589813232422,
    "longitude": -1.6605700254440308,
    "type": "domestic",
    "location": {
      "country": "United Kingdom",
      "city": "Leeds"
    }
  },
  {
    "name": "Hawarden Airport",
    "code": "CEG",
    "latitude": 53.1781005859375,
    "longitude": -2.9777801036834717,
    "type": "domestic",
    "location": {
      "country": "United Kingdom",
      "city": "Hawarden"
    }
  },
  {
    "name": "Isle of Man Airport",
    "code": "IOM",
    "latitude": 54.08330154418945,
    "longitude": -4.623889923095703,
    "type": "domestic",
    "location": {
      "country": "Isle of Man",
      "city": "Isle Of Man"
    }
  },
  {
    "name": "Newcastle Airport",
    "code": "NCL",
    "latitude": 55.037498474121094,
    "longitude": -1.6916699409484863,
    "type": "domestic",
    "location": {
      "country": "United Kingdom",
      "city": "Newcastle"
    }
  },
  {
    "name": "Durham Tees Valley Airport",
    "code": "MME",
    "latitude": 54.50920104980469,
    "longitude": -1.4294099807739258,
    "type": "domestic",
    "location": {
      "country": "United Kingdom",
      "city": "Teesside"
    }
  },
  {
    "name": "East Midlands Airport",
    "code": "EMA",
    "latitude": 52.8311004639,
    "longitude": -1.32806003094,
    "type": "domestic",
    "location": {
      "country": "United Kingdom",
      "city": "East Midlands"
    }
  },
  {
    "name": "Kirkwall Airport",
    "code": "KOI",
    "latitude": 58.957801818847656,
    "longitude": -2.9049999713897705,
    "type": "domestic",
    "location": {
      "country": "United Kingdom",
      "city": "Kirkwall"
    }
  },
  {
    "name": "Sumburgh Airport",
    "code": "LSI",
    "latitude": 59.87889862060547,
    "longitude": -1.2955600023269653,
    "type": "domestic",
    "location": {
      "country": "United Kingdom",
      "city": "Sumburgh"
    }
  },
  {
    "name": "Wick Airport",
    "code": "WIC",
    "latitude": 58.458900451660156,
    "longitude": -3.09306001663208,
    "type": "domestic",
    "location": {
      "country": "United Kingdom",
      "city": "Wick"
    }
  },
  {
    "name": "Aberdeen Dyce Airport",
    "code": "ABZ",
    "latitude": 57.201900482177734,
    "longitude": -2.197779893875122,
    "type": "domestic",
    "location": {
      "country": "United Kingdom",
      "city": "Aberdeen"
    }
  },
  {
    "name": "Inverness Airport",
    "code": "INV",
    "latitude": 57.54249954223633,
    "longitude": -4.047500133514404,
    "type": "domestic",
    "location": {
      "country": "United Kingdom",
      "city": "Inverness"
    }
  },
  {
    "name": "Glasgow International Airport",
    "code": "GLA",
    "latitude": 55.8718986511,
    "longitude": -4.43306016922,
    "type": "international",
    "location": {
      "country": "United Kingdom",
      "city": "Glasgow"
    }
  },
  {
    "name": "Edinburgh Airport",
    "code": "EDI",
    "latitude": 55.95000076293945,
    "longitude": -3.372499942779541,
    "type": "domestic",
    "location": {
      "country": "United Kingdom",
      "city": "Edinburgh"
    }
  },